name,country,endangerment,speakers,latitude,longitude
South Italian,Italy,Vulnerable,7500000,40.9798,15.249
Sicilian,Italy,Vulnerable,5.00E+06,37.4399,14.5019
Low Saxon,Germany,Vulnerable,4800000,53.4029,10.3601
Low Saxon,Denmark,Vulnerable,4800000,53.4029,10.3601
Low Saxon,Netherlands,Vulnerable,4800000,53.4029,10.3601
Low Saxon,Poland,Vulnerable,4800000,53.4029,10.3601
Low Saxon,Russian Federation,Vulnerable,4800000,53.4029,10.3601
Belarusian,Belarus,Vulnerable,4.00E+06,53.956,27.5756
Belarusian,Latvia,Vulnerable,4.00E+06,53.956,27.5756
Belarusian,Lithuania,Vulnerable,4.00E+06,53.956,27.5756
Belarusian,Poland,Vulnerable,4.00E+06,53.956,27.5756
Belarusian,Russian Federation,Vulnerable,4.00E+06,53.956,27.5756
Belarusian,Ukraine,Vulnerable,4.00E+06,53.956,27.5756
Lombard,Italy,Definitely endangered,3500000,45.7215,9.3273
Lombard,Switzerland,Definitely endangered,3500000,45.7215,9.3273
Romani,Albania,Definitely endangered,3500000,46.3165,22.3681
Romani,Germany,Definitely endangered,3500000,46.3165,22.3681
Romani,Austria,Definitely endangered,3500000,46.3165,22.3681
Romani,Belarus,Definitely endangered,3500000,46.3165,22.3681
Romani,Bosnia and Herzegovina,Definitely endangered,3500000,46.3165,22.3681
Romani,Bulgaria,Definitely endangered,3500000,46.3165,22.3681
Romani,Croatia,Definitely endangered,3500000,46.3165,22.3681
Romani,Estonia,Definitely endangered,3500000,46.3165,22.3681
Romani,Finland,Definitely endangered,3500000,46.3165,22.3681
Romani,France,Definitely endangered,3500000,46.3165,22.3681
Romani,Greece,Definitely endangered,3500000,46.3165,22.3681
Romani,Hungary,Definitely endangered,3500000,46.3165,22.3681
Romani,Italy,Definitely endangered,3500000,46.3165,22.3681
Romani,Latvia,Definitely endangered,3500000,46.3165,22.3681
Romani,Lithuania,Definitely endangered,3500000,46.3165,22.3681
Romani,The former Yugoslav Republic of Macedonia,Definitely endangered,3500000,46.3165,22.3681
Romani,Netherlands,Definitely endangered,3500000,46.3165,22.3681
Romani,Poland,Definitely endangered,3500000,46.3165,22.3681
Romani,Romania,Definitely endangered,3500000,46.3165,22.3681
Romani,United Kingdom of Great Britain and Northern Ireland,Definitely endangered,3500000,46.3165,22.3681
Romani,Russian Federation,Definitely endangered,3500000,46.3165,22.3681
Romani,Slovakia,Definitely endangered,3500000,46.3165,22.3681
Romani,Slovenia,Definitely endangered,3500000,46.3165,22.3681
Romani,Switzerland,Definitely endangered,3500000,46.3165,22.3681
Romani,Czech Republic,Definitely endangered,3500000,46.3165,22.3681
Romani,Turkey,Definitely endangered,3500000,46.3165,22.3681
Romani,Ukraine,Definitely endangered,3500000,46.3165,22.3681
Romani,Serbia,Definitely endangered,3500000,46.3165,22.3681
Romani,Montenegro,Definitely endangered,3500000,46.3165,22.3681
Yiddish (Israel),Israel,Definitely endangered,3.00E+06,32.0833,34.8333
Gondi,India,Vulnerable,2713790,19.5804,80.4418
Limburgian-Ripuarian,Germany,Vulnerable,2600000,50.7781,6.0864
Limburgian-Ripuarian,Belgium,Vulnerable,2600000,50.7781,6.0864
Limburgian-Ripuarian,Netherlands,Vulnerable,2600000,50.7781,6.0864
Quechua of Southern Bolivia,Bolivia (Plurinational State of),Vulnerable,2300000,-18.0675,-65.7641
Kumaoni,India,Vulnerable,2003783,29.4778,79.8486
Kumaoni,Nepal,Vulnerable,2003783,29.4778,79.8486
Aymara,Bolivia (Plurinational State of),Vulnerable,2.00E+06,-16.5835,-68.302
Aymara,Chile,Vulnerable,2.00E+06,-16.5835,-68.302
Aymara,Peru,Vulnerable,2.00E+06,-16.5835,-68.302
Emilian-Romagnol,Italy,Definitely endangered,2.00E+06,44.127,12.0739
Emilian-Romagnol,San Marino,Definitely endangered,2.00E+06,44.127,12.0739
Piedmontese,Italy,Definitely endangered,2.00E+06,45.2013,7.8662
Venetan,Croatia,Vulnerable,2.00E+06,45.4601,12.1948
Venetan,Italy,Vulnerable,2.00E+06,45.4601,12.1948
Venetan,Slovenia,Vulnerable,2.00E+06,45.4601,12.1948
Zazaki,Turkey,Vulnerable,2.00E+06,38.8824,40.4846
Kurux (India),India,Vulnerable,1751489,22.1467,85.2758
Tamajeq,Niger,Vulnerable,1750000,17.2352,8.0859
Tulu,India,Vulnerable,1722768,12.0178,75.7067
Kangdi,India,Definitely endangered,1700000,32.4356,76.1242
Scots,United Kingdom of Great Britain and Northern Ireland,Vulnerable,1500000,56.2189,-3.7683
Torlak,Albania,Vulnerable,1500000,42.9644,22.1374
Torlak,Bulgaria,Vulnerable,1500000,42.9644,22.1374
Torlak,The former Yugoslav Republic of Macedonia,Vulnerable,1500000,42.9644,22.1374
Torlak,Romania,Vulnerable,1500000,42.9644,22.1374
Torlak,Serbia,Vulnerable,1500000,42.9644,22.1374
West Flemish,Belgium,Vulnerable,1500000,51.0275,3.0541
West Flemish,France,Vulnerable,1500000,51.0275,3.0541
West Flemish,Netherlands,Vulnerable,1500000,51.0275,3.0541
Bashkir,Russian Federation,Vulnerable,1379727,54.7309,55.9863
Chechen,Russian Federation,Vulnerable,1331844,43.1971,45.7031
Chuvash,Russian Federation,Vulnerable,1325382,56.1394,47.2412
Meithei,India,Vulnerable,1250000,24.7667,93.8946
Tamang,India,Vulnerable,1196639,27.7365,85.6858
Tamang,Nepal,Vulnerable,1196639,27.7365,85.6858
Quechua of Cuzco,Peru,Vulnerable,1115000,-13.4537,-72.0098
Eastern Slovak,Slovakia,Vulnerable,1.00E+06,48.8068,21.7968
Eastern Slovak,Ukraine,Vulnerable,1.00E+06,48.8068,21.7968
Ligurian,France,Definitely endangered,1.00E+06,44.5748,8.7011
Ligurian,Italy,Definitely endangered,1.00E+06,44.5748,8.7011
Ligurian,Monaco,Definitely endangered,1.00E+06,44.5748,8.7011
Rusyn,Hungary,Vulnerable,1.00E+06,48.4437,22.9394
Rusyn,Poland,Vulnerable,1.00E+06,48.4437,22.9394
Rusyn,Romania,Vulnerable,1.00E+06,48.4437,22.9394
Rusyn,Slovakia,Vulnerable,1.00E+06,48.4437,22.9394
Rusyn,Ukraine,Vulnerable,1.00E+06,48.4437,22.9394
Talysh,Azerbaijan,Vulnerable,1.00E+06,38.814,48.6804
Talysh,Iran (Islamic Republic of),Vulnerable,1.00E+06,38.814,48.6804
Kui,India,Vulnerable,916222,19.5908,83.9575
Khasi,India,Vulnerable,912000,25.691,91.8676
Bodo,India,Vulnerable,9.00E+05,26.7554,92.8674
Campidanese,Italy,Definitely endangered,9.00E+05,39.2991,8.9868
K'iche' (Guatemala),Guatemala,Vulnerable,890596,15.0309,-91.1485
Quechua of Ayacucho,Peru,Definitely endangered,850000,-13.1276,-74.2071
Newar,Nepal,Definitely endangered,825458,27.6981,85.3198
Mon,Myanmar,Vulnerable,8.00E+05,16.4666,97.7833
Mon,Thailand,Vulnerable,8.00E+05,16.4666,97.7833
Polesian,Belarus,Vulnerable,8.00E+05,51.8629,23.9501
Polesian,Poland,Vulnerable,8.00E+05,51.8629,23.9501
Polesian,Ukraine,Vulnerable,8.00E+05,51.8629,23.9501
Tamaceq,Mali,Definitely endangered,8.00E+05,16.7992,-3.0102
Avar,Russian Federation,Vulnerable,784840,42.4801,46.8017
Mundari,India,Vulnerable,750000,22.3297,86.0449
Welsh,United Kingdom of Great Britain and Northern Ireland,Vulnerable,750000,52.4459,-3.5485
Angika,India,Vulnerable,740892,24.7451,85.3124
Angika,Nepal,Vulnerable,740892,24.7451,85.3124
Q'eqchi' (Guatemala),Guatemala,Vulnerable,716101,15.4707,-90.3722
Picard,Belgium,Severely endangered,7.00E+05,50.2331,2.7905
Picard,France,Severely endangered,7.00E+05,50.2331,2.7905
Kokborok,Bangladesh,Vulnerable,695000,23.7752,91.6918
Kokborok,India,Vulnerable,695000,23.7752,91.6918
Basque,Spain,Vulnerable,660000,43.133,-2.0764
Basque,France,Vulnerable,660000,43.133,-2.0764
Kabard-Cherkes,Russian Federation,Vulnerable,650000,43.7393,43.4289
Kabard-Cherkes,Turkey,Vulnerable,650000,43.7393,43.4289
Mandeali,India,Definitely endangered,611930,31.4099,76.9921
Friulian,Italy,Definitely endangered,6.00E+05,46.1037,13.1396
Quechua of Ancash and Huánuco,Peru,Definitely endangered,6.00E+05,-9.4598,-77.1789
Walloon,Belgium,Definitely endangered,6.00E+05,50.4575,4.8559
Walloon,France,Definitely endangered,6.00E+05,50.4575,4.8559
Walloon,Luxembourg,Definitely endangered,6.00E+05,50.4575,4.8559
Mising,India,Definitely endangered,550000,26.9612,94.0539
Ossete,Georgia,Vulnerable,550000,42.9564,44.4946
Ossete,Russian Federation,Vulnerable,550000,42.9564,44.4946
Mizo,India,Vulnerable,529000,22.9988,92.9223
Dargwa,Russian Federation,Vulnerable,503523,42.1145,47.4938
Aromanian,Albania,Definitely endangered,5.00E+05,40.2292,21.1376
Aromanian,Bulgaria,Definitely endangered,5.00E+05,40.2292,21.1376
Aromanian,Greece,Definitely endangered,5.00E+05,40.2292,21.1376
Aromanian,The former Yugoslav Republic of Macedonia,Definitely endangered,5.00E+05,40.2292,21.1376
Aromanian,Serbia,Definitely endangered,5.00E+05,40.2292,21.1376
Brahui,Iran (Islamic Republic of),Vulnerable,5.00E+05,29.0369,66.5826
Brahui,Pakistan,Vulnerable,5.00E+05,29.0369,66.5826
Brahui,Afghanistan,Vulnerable,5.00E+05,29.0369,66.5826
Languedocian,France,Severely endangered,5.00E+05,43.8899,2.5378
Lezgian,Azerbaijan,Vulnerable,5.00E+05,41.4921,48.0541
Lezgian,Russian Federation,Vulnerable,5.00E+05,41.4921,48.0541
Mahasui,India,Definitely endangered,496024,31.2738,77.1295
Magar,Nepal,Definitely endangered,489383,28.0816,83.4301
Mam (Guatemala),Guatemala,Vulnerable,477717,14.9305,-91.9078
Udmurt,Russian Federation,Definitely endangered,463837,57.2315,52.8662
Huasteca Náhuatl,Mexico,Vulnerable,463183,21.3835,-98.9902
Kumyk,Russian Federation,Vulnerable,458121,43.397,46.9775
Yakut,Russian Federation,Vulnerable,456288,62.3496,130.8691
Kaqchikel (Guatemala),Guatemala,Vulnerable,444954,14.7814,-90.7925
Karbi,India,Vulnerable,420000,26.2934,93.2299
Eastern Mari,Russian Federation,Definitely endangered,414211,56.632,47.8784
Ingush,Russian Federation,Vulnerable,405343,43.145,45.1043
Erzya,Russian Federation,Definitely endangered,4.00E+05,54.1302,45.4394
Ho,India,Vulnerable,4.00E+05,21.637,86.4404
Judezmo (Israel),Israel,Severely endangered,4.00E+05,32.0872,34.7737
Lalo,China,Vulnerable,4.00E+05,25.383,99.9426
Limousin,France,Severely endangered,4.00E+05,46.0579,1.8017
Logudorese,Italy,Definitely endangered,4.00E+05,40.1116,9.1845
Mapuche (Chile),Chile,Definitely endangered,4.00E+05,-38.5653,-73.081
Central Náhuatl,Mexico,Vulnerable,395581,19.191,-99.0236
Moselle Franconian,Germany,Vulnerable,390000,49.6071,6.1248
Moselle Franconian,Belgium,Vulnerable,390000,49.6071,6.1248
Moselle Franconian,France,Vulnerable,390000,49.6071,6.1248
Moselle Franconian,Luxembourg,Vulnerable,390000,49.6071,6.1248
Bantawa,Nepal,Vulnerable,371056,27.0994,87.0048
Santa,China,Vulnerable,360000,35.5411,102.7935
Mingrelian,Georgia,Definitely endangered,350000,42.4599,41.7205
West Frisian,Netherlands,Vulnerable,350000,53.1006,5.6579
Gurung,Nepal,Definitely endangered,338925,28.275,84.1782
Guajiro,Colombia,Vulnerable,318500,11.8673,-71.9824
Guajiro,Venezuela (Bolivarian Republic of),Vulnerable,318500,11.8673,-71.9824
Karachay-Balkar,Russian Federation,Vulnerable,302748,44.2137,42.8466
Adyge,Iraq,Vulnerable,3.00E+05,44.9181,39.7485
Adyge,Israel,Vulnerable,3.00E+05,44.9181,39.7485
Adyge,Jordan,Vulnerable,3.00E+05,44.9181,39.7485
Adyge,The former Yugoslav Republic of Macedonia,Vulnerable,3.00E+05,44.9181,39.7485
Adyge,Russian Federation,Vulnerable,3.00E+05,44.9181,39.7485
Adyge,Syrian Arab Republic,Vulnerable,3.00E+05,44.9181,39.7485
Adyge,Turkey,Vulnerable,3.00E+05,44.9181,39.7485
Buryat (Trans-Baikal),Russian Federation,Definitely endangered,3.00E+05,50.8336,109.5117
Kurru,India,Definitely endangered,3.00E+05,16.6151,81.6284
Kuvi,India,Definitely endangered,3.00E+05,18.9478,83.5839
Limbu,India,Definitely endangered,3.00E+05,27.096,87.7356
Limbu,Nepal,Definitely endangered,3.00E+05,27.096,87.7356
Moroccan Judeo-Arabic (Israel),Israel,Definitely endangered,3.00E+05,32.0476,34.7552
Plautdietsch,Ukraine,Definitely endangered,3.00E+05,47.0738,35.5545
Pontic Greek,Armenia,Definitely endangered,3.00E+05,40.847,40.0149
Pontic Greek,Georgia,Definitely endangered,3.00E+05,40.847,40.0149
Pontic Greek,Greece,Definitely endangered,3.00E+05,40.847,40.0149
Pontic Greek,Russian Federation,Definitely endangered,3.00E+05,40.847,40.0149
Pontic Greek,Turkey,Definitely endangered,3.00E+05,40.847,40.0149
Pontic Greek,Ukraine,Definitely endangered,3.00E+05,40.847,40.0149
"Quichua (Cotopaxi, Tungurahua and Chimborazo)",Ecuador,Definitely endangered,3.00E+05,-1.8673,-78.9257
Waxiang,China,Vulnerable,3.00E+05,28.5652,110.3576
Oyrat,China,Definitely endangered,280000,46.195,88.7255
Oyrat,Kyrgyzstan,Definitely endangered,280000,46.195,88.7255
Oyrat,Mongolia,Definitely endangered,280000,46.195,88.7255
Garhwali,India,Vulnerable,279500,30.0976,79.1235
Bade,Nigeria,Vulnerable,250000,12.801,11.1181
Breton,France,Severely endangered,250000,48.2246,-3.9331
Gascon,Spain,Definitely endangered,250000,43.1811,-0.1428
Gascon,France,Definitely endangered,250000,43.1811,-0.1428
Phula (China),China,Vulnerable,250000,22.6001,104.0004
Sora,India,Vulnerable,250000,19.1244,83.2104
Konyak,India,Vulnerable,248000,26.9367,95.1745
Ao,India,Vulnerable,243000,26.4361,94.6472
Tuvan,China,Vulnerable,242754,51.7134,94.3945
Tuvan,Mongolia,Vulnerable,242754,51.7134,94.3945
Tuvan,Russian Federation,Vulnerable,242754,51.7134,94.3945
Nafusi,Libyan Arab Jamahiriya,Severely endangered,240000,32.6393,13.4252
Suret,Armenia,Definitely endangered,240000,36.4477,43.2971
Suret,Iran (Islamic Republic of),Definitely endangered,240000,36.4477,43.2971
Suret,Iraq,Definitely endangered,240000,36.4477,43.2971
Suret,Syrian Arab Republic,Definitely endangered,240000,36.4477,43.2971
Suret,Turkey,Definitely endangered,240000,36.4477,43.2971
Malto,India,Definitely endangered,224926,23.7853,85.4736
Khowar,Pakistan,Vulnerable,222800,35.8667,71.7956
Maiya,Pakistan,Vulnerable,220000,35.3151,72.908
Komi,Russian Federation,Definitely endangered,217316,62.3087,51.5917
Alpine Provençal,France,Definitely endangered,2.00E+05,44.7467,6.6796
Alpine Provençal,Italy,Definitely endangered,2.00E+05,44.7467,6.6796
Gallo,France,Severely endangered,2.00E+05,47.931,-2.0544
Gera,Nigeria,Vulnerable,2.00E+05,10.5553,10.0579
Irula,India,Vulnerable,2.00E+05,11.4369,76.5032
Kharia,India,Vulnerable,2.00E+05,21.8003,85.4956
Khorasani Turk,Iran (Islamic Republic of),Vulnerable,2.00E+05,36.6596,57.854
Korku,India,Vulnerable,2.00E+05,20.3034,80.2441
Moksha,Russian Federation,Definitely endangered,2.00E+05,54.1817,43.2751
Western Armenian (Middle East),Iraq,Definitely endangered,2.00E+05,33.884,35.5133
Western Armenian (Middle East),Lebanon,Definitely endangered,2.00E+05,33.884,35.5133
Western Armenian (Middle East),Syrian Arab Republic,Definitely endangered,2.00E+05,33.884,35.5133
Western Cham,Cambodia,Vulnerable,2.00E+05,12.0333,105.4333
Tshangla,Bhutan,Vulnerable,193000,27.1275,91.9335
Tshangla,China,Vulnerable,193000,27.1275,91.9335
Tshangla,India,Vulnerable,193000,27.1275,91.9335
Thado,India,Vulnerable,191000,24.4521,93.2354
Gagauz (Bessarabia),Republic of Moldova,Definitely endangered,180000,46.0922,28.7951
Gagauz (Bessarabia),Ukraine,Definitely endangered,180000,46.0922,28.7951
Kului,India,Definitely endangered,170770,31.4403,77.1487
Adi,China,Vulnerable,170000,28.3527,95.2294
Adi,India,Vulnerable,170000,28.3527,95.2294
Lhota,India,Vulnerable,170000,26.1603,94.3725
Nyishi,India,Vulnerable,170000,27.5277,93.0981
Ngäbere (Panama),Panama,Vulnerable,169130,9.3395,-82.2428
Kodagu,India,Definitely endangered,166187,11.6952,75.9375
Corsican,France,Definitely endangered,160000,42.0819,9.0307
Corsican,Italy,Definitely endangered,160000,42.0819,9.0307
Dzongkha,Bhutan,Vulnerable,160000,27.44,89.6731
Kalmyk,Russian Federation,Definitely endangered,153602,46.2026,45.8239
Lak,Russian Federation,Vulnerable,153373,42.0125,47.2521
Asturian-Leonese,Spain,Definitely endangered,150000,42.7954,-5.6689
Asturian-Leonese,Portugal,Definitely endangered,150000,42.7954,-5.6689
Latgalian,Latvia,Vulnerable,150000,56.1822,27.1362
Latgalian,Russian Federation,Vulnerable,150000,56.1822,27.1362
Provençal,France,Severely endangered,150000,43.5485,6.1083
Rabha,India,Vulnerable,150000,25.9284,90.9777
Tamzabit,Algeria,Vulnerable,150000,32.4816,3.6694
Sherpa,China,Vulnerable,143693,27.739,86.839
Sherpa,India,Vulnerable,143693,27.739,86.839
Sherpa,Nepal,Vulnerable,143693,27.739,86.839
Tangkhul,India,Vulnerable,142000,25.0358,94.4824
Q'aanjob'al,Guatemala,Vulnerable,139830,15.6019,-91.4441
Badaga,India,Definitely endangered,134514,11.3642,76.5266
Angami,India,Vulnerable,132000,25.7553,94.1308
Laz,Georgia,Definitely endangered,130000,41.2736,41.2646
Laz,Turkey,Definitely endangered,130000,41.2736,41.2646
Tabasaran,Russian Federation,Vulnerable,128391,41.8081,47.9882
Chambeali,India,Definitely endangered,126589,32.9072,76.5307
Abkhaz,Georgia,Vulnerable,125000,43.133,40.8471
Abkhaz,Russian Federation,Vulnerable,125000,43.133,40.8471
Abkhaz,Turkey,Vulnerable,125000,43.133,40.8471
Phom,India,Vulnerable,123000,26.7799,94.9493
Kolami,India,Definitely endangered,121855,20.5093,78.1787
Navajo,United States of America,Vulnerable,120000,35.8044,-108.475
Sassarese,Italy,Definitely endangered,120000,40.6139,8.6132
Tamahaq (Algeria),Algeria,Vulnerable,120000,22.8369,5.5371
Konda,India,Definitely endangered,118597,18.2763,82.9385
Sierra Totonac,Mexico,Severely endangered,118367,20.2461,-97.6586
Jaunsari,India,Definitely endangered,114733,30.4859,78.0908
Dimasa,India,Vulnerable,112000,24.7368,92.9003
Ladakhi,China,Vulnerable,105000,34.0617,77.5909
Ladakhi,India,Vulnerable,105000,34.0617,77.5909
Salar,China,Vulnerable,104503,36.2752,102.4584
Simi,India,Vulnerable,104000,25.9777,94.5922
Phurhepecha,Mexico,Vulnerable,102988,19.3111,-102.041
Crimean Tatar (Crimea),Ukraine,Severely endangered,1.00E+05,45.3212,34.3212
Dagur (Nonni),China,Definitely endangered,1.00E+05,47.9163,124.1235
Francoprovençal,France,Definitely endangered,1.00E+05,45.7828,6.9982
Francoprovençal,Italy,Definitely endangered,1.00E+05,45.7828,6.9982
Francoprovençal,Switzerland,Definitely endangered,1.00E+05,45.7828,6.9982
Gallurese,Italy,Definitely endangered,1.00E+05,40.8802,9.4482
Mapuche (Argentina),Argentina,Severely endangered,1.00E+05,-40.0791,-71.0156
Mehri,Oman,Definitely endangered,1.00E+05,16.5993,52.8057
Mehri,Yemen,Definitely endangered,1.00E+05,16.5993,52.8057
Miskito (Nicaragua),Nicaragua,Vulnerable,1.00E+05,12.4001,-83.7332
Ordos,China,Definitely endangered,1.00E+05,39.1641,108.1054
Quechua of Northern Bolivia,Bolivia (Plurinational State of),Vulnerable,1.00E+05,-15.3649,-69.0518
Suba,Kenya,Vulnerable,1.00E+05,-0.9942,34.519
Suba,United Republic of Tanzania,Vulnerable,1.00E+05,-0.9942,34.519
Garífuna (Honduras),Honduras,Vulnerable,98000,15.6754,-88.1476
Embera (Colombia),Colombia,Vulnerable,95000,6.1624,-76.8383
Kabui,India,Vulnerable,95000,24.7218,93.6584
Shughni,Tajikistan,Vulnerable,95000,37.4879,71.5374
Shughni,Afghanistan,Vulnerable,95000,37.4879,71.5374
Permyak,Russian Federation,Definitely endangered,94328,59.204,54.5361
Poqomchi',Guatemala,Vulnerable,92941,15.3757,-90.4288
Yimchungru,India,Vulnerable,92000,25.9629,94.9713
Nogay (Caucasus),Russian Federation,Definitely endangered,90020,43.8028,46.2744
Heiban,Sudan,Vulnerable,90000,10.8575,30.2371
Quichua (Cañar and Azuay),Ecuador,Severely endangered,90000,-2.6577,-78.8378
Mezquital Otomí,Mexico,Definitely endangered,88789,20.4831,-99.217
Eastern Mazahua,Mexico,Definitely endangered,88001,19.7129,-99.9515
Burushaski,Pakistan,Vulnerable,87000,35.909,74.2153
Central Otomí,Mexico,Definitely endangered,84593,19.4661,-99.5944
Chokri,India,Vulnerable,84000,25.8691,94.7131
Sangtam,India,Vulnerable,84000,26.6032,94.9603
Ixil (Guatemala),Guatemala,Vulnerable,83574,15.4849,-91.0358
Achi',Guatemala,Vulnerable,82640,15.0845,-90.4888
Yem,Ethiopia,Vulnerable,81613,7.6347,37.3205
Mao,India,Vulnerable,81000,25.5027,94.2681
Arbëresh,Italy,Definitely endangered,80000,40.9321,14.8645
Lari,Iran (Islamic Republic of),Definitely endangered,80000,27.8585,54.8547
Páez,Colombia,Definitely endangered,80000,2.8237,-76.3117
Quechua of Santiago del Estero,Argentina,Definitely endangered,80000,-26.7848,-63.6767
Svan,Georgia,Definitely endangered,80000,43.0207,42.3193
Tai Daeng,Lao People's Democratic Republic,Vulnerable,80000,19.8833,104.6166
Tai Daeng,Viet Nam,Vulnerable,80000,19.8833,104.6166
Taznatit,Algeria,Severely endangered,80000,29.3413,0.3955
Razihi,Yemen,Definitely endangered,75000,16.8834,43.2655
Wakhi,China,Definitely endangered,75000,37.1603,74.9047
Wakhi,Pakistan,Definitely endangered,75000,37.1603,74.9047
Wakhi,Tajikistan,Definitely endangered,75000,37.1603,74.9047
Wakhi,Afghanistan,Definitely endangered,75000,37.1603,74.9047
Bishnupriya Manipuri Creole,Bangladesh,Vulnerable,72899,24.297,92.4499
Bishnupriya Manipuri Creole,India,Vulnerable,72899,24.297,92.4499
Acheron,Sudan,Severely endangered,70000,10.809,30.2453
Maori,New Zealand,Vulnerable,70000,-38.4105,177.3632
Tai Neua,Lao People's Democratic Republic,Vulnerable,70000,20.5166,104.3166
Bhadravahi,India,Definitely endangered,66918,33.5413,76.333
Bhadravahi,Pakistan,Definitely endangered,66918,33.5413,76.333
Kinnauri,India,Definitely endangered,65097,31.541,78.3764
Gallo-Sicilian,Italy,Definitely endangered,65000,38.0167,14.5994
Kurux (Bangladesh),Bangladesh,Vulnerable,65000,25.8196,88.9672
Tz'utujil,Guatemala,Definitely endangered,63237,14.6394,-91.2301
Chamorro,Guam (U.S.A.),Vulnerable,62500,13.4323,144.7338
Ashaninka (Peru),Peru,Vulnerable,62468,-10.6929,-74.3444
Chang,India,Vulnerable,62000,26.2934,94.9493
Kuna (Panama),Panama,Vulnerable,61703,9.5983,-79.6334
Churahi,India,Definitely endangered,61199,33.1835,76.5747
Nruanghmei,India,Vulnerable,61000,24.9661,93.5375
Rengma,India,Vulnerable,61000,25.958,94.2462
Faroese,Faroe Islands,Vulnerable,60000,62.0112,-6.7785
Northern Tujia,China,Severely endangered,60000,28.828,109.5904
Torwali,Pakistan,Definitely endangered,60000,35.5833,72.5
Chuj (Guatemala),Guatemala,Vulnerable,59048,15.8259,-91.4783
Kachari,India,Definitely endangered,59000,25.2844,93.2189
Scottish Gaelic,United Kingdom of Great Britain and Northern Ireland,Definitely endangered,58552,58.1011,-6.7675
Sierra de Puebla Náhuatl,Mexico,Definitely endangered,57189,19.6223,-97.8149
Limonese Creole,Costa Rica,Definitely endangered,55000,9.9916,-83.0316
Kashubian,Poland,Severely endangered,53000,54.2267,18.1713
Khakas,Russian Federation,Definitely endangered,52217,53.7746,90.3735
Parji,India,Critically endangered,51216,18.5629,82.8039
Arvanitika,Greece,Severely endangered,50000,38.1863,23.6096
Buryat (Cis-Baikal),Russian Federation,Severely endangered,50000,52.7961,104.8809
Buryat (Manchuria),China,Definitely endangered,50000,49.8096,119.7509
Buryat (Manchuria),Mongolia,Definitely endangered,50000,49.8096,119.7509
Cuona Menba,Bhutan,Vulnerable,50000,26.8279,95.3623
Cuona Menba,China,Vulnerable,50000,26.8279,95.3623
Cuona Menba,India,Vulnerable,50000,26.8279,95.3623
Eastern Cham,Viet Nam,Definitely endangered,50000,10.7833,108.0833
Hmar,India,Vulnerable,50000,24.577,93.3178
Huzhu Monguor,China,Severely endangered,50000,36.7608,102.4255
Paite,India,Vulnerable,50000,24.1968,93.3563
Quichua (Imbabura),Ecuador,Definitely endangered,50000,0.1757,-78.2006
Soqotri,Yemen,Severely endangered,50000,12.5331,53.767
Southern Altay,Russian Federation,Definitely endangered,50000,51.069,86.5942
Transylvanian Saxon,Romania,Severely endangered,50000,46.214,24.2413
Turoyo,Syrian Arab Republic,Severely endangered,50000,37.405,41.3745
Turoyo,Turkey,Severely endangered,50000,37.405,41.3745
Võro-Seto,Estonia,Definitely endangered,50000,57.8096,27.29
Võro-Seto,Russian Federation,Definitely endangered,50000,57.8096,27.29
West Greenlandic,Greenland (Kingdom of Denmark),Vulnerable,50000,64.1681,-51.7236
Western Armenian (Turkey),Turkey,Definitely endangered,50000,41.0213,28.9324
Zaramo,United Republic of Tanzania,Definitely endangered,50000,-6.922,39.2409
Zenatiya,Algeria,Critically endangered,50000,35.5702,1.8099
Papantla Totonac,Mexico,Definitely endangered,49748,20.4477,-97.32
Wancho,India,Vulnerable,49000,26.9759,95.4656
Bhumji,India,Vulnerable,47000,21.8003,86.8139
Cosung (China),China,Definitely endangered,47000,22.6833,102.6666
Cosung (Viet Nam),Viet Nam,Definitely endangered,47000,22.6166,102.75
Baheng (China),China,Vulnerable,45000,26.19,110.24
Lumun,Sudan,Definitely endangered,45000,10.8387,30.0338
Quichua (Loja),Ecuador,Severely endangered,45000,-3.6236,-79.2388
Chamling,Nepal,Definitely endangered,44093,27.0499,86.7329
Irish,Ireland,Definitely endangered,44000,53.7876,-9.1845
Irish,United Kingdom of Great Britain and Northern Ireland,Definitely endangered,44000,53.7876,-9.1845
Reshe,Nigeria,Vulnerable,44000,10.8791,4.6115
Sierra Otomí,Mexico,Vulnerable,43468,20.1021,-97.622
Phuthi,Lesotho,Definitely endangered,43000,-29.3791,28.2838
Rarotongan,Cook Islands,Vulnerable,43000,-21.2343,-159.7837
Khalaj,Iran (Islamic Republic of),Vulnerable,42100,34.3751,50.3063
Dungan,Kazakhstan,Definitely endangered,41000,42.4518,78.4643
Dungan,Kyrgyzstan,Definitely endangered,41000,42.4518,78.4643
Kheza,India,Vulnerable,41000,25.6811,94.367
Jola-Kassa,Senegal,Vulnerable,40850,13.1089,-15.8999
Satar,Nepal,Vulnerable,40260,26.5541,87.918
Guaraní Boliviano,Argentina,Vulnerable,40000,-20.1694,-63.8525
Guaraní Boliviano,Bolivia (Plurinational State of),Vulnerable,40000,-20.1694,-63.8525
Gutob,India,Vulnerable,40000,18.7086,83.5839
Kheng,Bhutan,Vulnerable,40000,27.0786,91.0272
Laro,Sudan,Definitely endangered,40000,10.7685,29.902
Minyong,India,Vulnerable,40000,28.2632,95.0537
Mru,Myanmar,Severely endangered,40000,21.7748,92.2741
Patani Malay,Thailand,Vulnerable,40000,6.6482,100.0387
"Quechua of Cajatambo, Pasco and northern Junín",Peru,Severely endangered,40000,-10.6147,-76.506
Quichua (Napo),Ecuador,Definitely endangered,40000,-0.6371,-77.1459
Tangsa,India,Vulnerable,40000,27.4059,96.427
Tetserret,Niger,Severely endangered,40000,15.4907,6.2072
Awajun,Peru,Vulnerable,39000,-4.3464,-77.8271
Khiamngan,India,Vulnerable,38000,26.0518,95.1031
Ngile,Sudan,Severely endangered,38000,10.7901,29.8635
Phunoi,Lao People's Democratic Republic,Vulnerable,37311,21.6833,102.1
Lower Mixe,Mexico,Vulnerable,37000,16.9616,-95.093
Maram,India,Vulnerable,37000,25.185,93.9715
Western Mari,Russian Federation,Severely endangered,36822,56.3317,46.5545
Chepang,Nepal,Vulnerable,36807,27.7552,84.8144
Chontal Tabasco,Mexico,Severely endangered,36514,17.7607,-92.5936
Muji,China,Definitely endangered,36500,23.6,102.7333
Akatek (Guatemala),Guatemala,Vulnerable,35763,15.5724,-91.4218
Huichol,Mexico,Vulnerable,35724,22.65,-103.5833
Romansh,Switzerland,Definitely endangered,35095,46.5777,9.6954
Apatani,India,Vulnerable,35000,27.5228,93.8177
Galo,India,Vulnerable,35000,28.1688,94.7433
Korwa,India,Vulnerable,35000,22.4922,84.1552
Shuar chicham,Ecuador,Definitely endangered,35000,-2.8826,-78.0303
Ticuna,Brazil,Definitely endangered,35000,-4.3464,-70.0048
Ticuna,Colombia,Definitely endangered,35000,-4.3464,-70.0048
Ticuna,Peru,Definitely endangered,35000,-4.3464,-70.0048
Wanka Quechua,Peru,Severely endangered,35000,-12.136,-75.2453
Sikuani,Colombia,Vulnerable,34614,3.4256,-68.8183
Sikuani,Venezuela (Bolivarian Republic of),Vulnerable,34614,3.4256,-68.8183
Jakaltek (Guatemala),Guatemala,Definitely endangered,34038,15.6685,-91.7111
Liangmai,India,Vulnerable,34000,25.2794,93.6694
Zeme,India,Vulnerable,34000,25.5027,93.5595
Highland Mazatec,Mexico,Vulnerable,33859,18.1307,-96.8436
Thangmi,Nepal,Definitely endangered,33500,27.6969,86.0057
Nocte,India,Vulnerable,33000,27.1618,95.7952
Mayo,Mexico,Critically endangered,32869,26.9114,-109.6271
Lauje,Indonesia,Vulnerable,32000,-0.4531,119.9816
Danuwar,Nepal,Severely endangered,31849,26.9661,86.3223
Sirmaudi,India,Critically endangered,31144,30.9823,77.1569
Abaza,Russian Federation,Definitely endangered,31000,44.1556,41.9368
Abaza,Turkey,Definitely endangered,31000,44.1556,41.9368
Koch,India,Definitely endangered,31000,25.7603,90.3955
Amis,China,Vulnerable,30000,23.4456,121.4483
Biak,Indonesia,Vulnerable,30000,-0.3076,131.2207
Bumthang,Bhutan,Vulnerable,30000,27.492,90.7159
Burgenland Croatian,Austria,Definitely endangered,30000,47.8435,16.5179
Burgenland Croatian,Hungary,Definitely endangered,30000,47.8435,16.5179
Burgenland Croatian,Slovakia,Definitely endangered,30000,47.8435,16.5179
Dzhidi,Iran (Islamic Republic of),Definitely endangered,30000,33.5139,48.0102
Judeo-Berber (Israel),Israel,Severely endangered,30000,31.6767,34.5684
Kham,Nepal,Definitely endangered,30000,28.4321,82.9635
Ladin,Italy,Definitely endangered,30000,46.5531,11.8597
Lepcha,Bhutan,Definitely endangered,30000,27.1153,88.4687
Lepcha,India,Definitely endangered,30000,27.1153,88.4687
Lepcha,Nepal,Definitely endangered,30000,27.1153,88.4687
Maonan,China,Vulnerable,30000,24.8341,107.577
"Mok (Myanmar, Thailand)",Myanmar,Definitely endangered,30000,21.7333,99.7666
"Mok (Myanmar, Thailand)",Thailand,Definitely endangered,30000,21.7333,99.7666
Moro,Sudan,Definitely endangered,30000,10.8872,30.1904
Mulam,China,Vulnerable,30000,24.6341,108.2895
North Saami,Finland,Definitely endangered,30000,68.9099,22.9394
North Saami,Norway,Definitely endangered,30000,68.9099,22.9394
North Saami,Russian Federation,Definitely endangered,30000,68.9099,22.9394
North Saami,Sweden,Definitely endangered,30000,68.9099,22.9394
Quechua of Cajamarca,Peru,Severely endangered,30000,-7.1772,-78.673
Quichua (Pastaza),Ecuador,Definitely endangered,30000,-1.7575,-76.8603
Rushani,Tajikistan,Definitely endangered,30000,37.8705,71.5979
Rushani,Afghanistan,Definitely endangered,30000,37.8705,71.5979
Tagin,India,Vulnerable,30000,28.038,94.2022
Tialo,Indonesia,Vulnerable,30000,0.4888,120.8935
Tidikelt,Algeria,Critically endangered,30000,26.8828,2.5488
Toba,Argentina,Definitely endangered,30000,-25.958,-59.0625
Tundra Nenets,Russian Federation,Definitely endangered,30000,67.5001,67.7856
Vojvodina Rusyn,Croatia,Definitely endangered,30000,45.6351,19.1903
Vojvodina Rusyn,Serbia,Definitely endangered,30000,45.6351,19.1903
Wuse,China,Vulnerable,30000,24.878,109.1053
Agul,Russian Federation,Definitely endangered,29399,41.7518,47.6875
Rutul,Azerbaijan,Definitely endangered,29383,41.5332,47.3181
Rutul,Russian Federation,Definitely endangered,29383,41.5332,47.3181
Bateri,Pakistan,Definitely endangered,29000,34.9073,72.8675
Mzieme,India,Vulnerable,29000,25.6019,93.8891
Ghale,Nepal,Vulnerable,28989,28.2501,84.718
Sierra Popoluca,Mexico,Vulnerable,28700,18.245,-94.76
Kurux (Nepal),Nepal,Vulnerable,28615,26.6032,87.2259
Deori,India,Definitely endangered,28000,27.1911,94.1528
Soyaltepec Mazatec,Mexico,Vulnerable,27524,18.2499,-96.3995
Western Mazahua,Mexico,Definitely endangered,27037,19.4372,-100.3552
Sibe,China,Severely endangered,27000,43.6599,81.3427
Isthmus Náhuatl,Mexico,Vulnerable,26632,18.2209,-94.8382
Sunwar,Nepal,Vulnerable,26611,27.3485,86.2337
Mancagne,Senegal,Vulnerable,26450,12.7743,-15.6967
Gadaba,India,Critically endangered,26262,18.3858,82.7819
Banat Bulgarian,Romania,Definitely endangered,25000,45.4832,20.9069
Banat Bulgarian,Serbia,Definitely endangered,25000,45.4832,20.9069
Csángó Hungarian,Romania,Severely endangered,25000,46.7925,27.1911
Koda,India,Vulnerable,25000,22.1263,87.0776
Minhe Monguor,China,Definitely endangered,25000,36.4919,102.6452
Miskito (Honduras),Honduras,Vulnerable,25000,15.3393,-84.6034
Olonetsian,Finland,Definitely endangered,25000,61.1273,32.8765
Olonetsian,Russian Federation,Definitely endangered,25000,61.1273,32.8765
Saek,Lao People's Democratic Republic,Definitely endangered,25000,19.3166,104.7833
Saek,Thailand,Definitely endangered,25000,19.3166,104.7833
Sioux,United States of America,Vulnerable,25000,43.0588,-102.5244
Tamazight (Beni Iznassen),Morocco,Definitely endangered,25000,34.7506,-2.1917
Tsakhur,Azerbaijan,Definitely endangered,25000,41.6523,46.9775
Tsakhur,Russian Federation,Definitely endangered,25000,41.6523,46.9775
Warao,Guyana,Definitely endangered,25000,8.6027,-61.3806
Warao,Venezuela (Bolivarian Republic of),Definitely endangered,25000,8.6027,-61.3806
Majhi,Nepal,Severely endangered,24664,27.9208,83.5082
Jone,China,Definitely endangered,24000,34.5947,103.5653
Andi,Russian Federation,Definitely endangered,23729,42.7308,46.2963
Guambiano,Colombia,Definitely endangered,23462,2.6138,-76.3906
Anal,India,Vulnerable,23000,24.1517,93.9385
Hawrami,Iran (Islamic Republic of),Definitely endangered,23000,35.4259,46.2551
Hawrami,Iraq,Definitely endangered,23000,35.4259,46.2551
Juang,India,Definitely endangered,23000,21.0742,85.6164
Tiwa,India,Definitely endangered,23000,25.7801,92.5927
Embera (Panama),Panama,Vulnerable,22485,8.1179,-77.7429
Ediamat,Guinea-Bissau,Vulnerable,22025,12.2621,-16.5289
Mara,India,Definitely endangered,22000,23.5237,92.9003
Maring,India,Vulnerable,22000,24.6769,94.3835
Polci cluster,Nigeria,Definitely endangered,22000,9.9742,9.3328
Sarikoli,China,Definitely endangered,22000,37.9463,75.1272
Krongo,Sudan,Definitely endangered,21688,10.585,29.8883
Ashtiani,Iran (Islamic Republic of),Definitely endangered,21000,34.4861,51.0562
Khunsari,Iran (Islamic Republic of),Definitely endangered,21000,32.8795,51.6796
Semnani,Iran (Islamic Republic of),Definitely endangered,21000,34.8679,53.4924
Plains Cree,Canada,Vulnerable,20933,56.3544,-113.8345
Higher Reservoir Mazatec,Mexico,Vulnerable,20665,18.158,-96.7045
Chilchotla Mazatec,Mexico,Vulnerable,20585,18.2934,-96.7029
"Zapotec of the Valleys, middle northwest",Mexico,Definitely endangered,20448,17.05,-96.6333
Aluo,China,Definitely endangered,20000,25.9368,102.1839
Bangni,India,Vulnerable,20000,28.0331,93.0651
Bru,Thailand,Definitely endangered,20000,15.3174,105.4938
Cho-ca-nga-ca-kha,Bhutan,Definitely endangered,20000,27.4107,91.2277
Crimean Tatar (Dobruja),Bulgaria,Severely endangered,20000,43.9414,28.3062
Crimean Tatar (Dobruja),Romania,Severely endangered,20000,43.9414,28.3062
Dhimal,Nepal,Severely endangered,20000,26.6192,87.4635
Griko (Salento),Italy,Severely endangered,20000,40.1578,18.2208
Kaiowá Guarani,Brazil,Vulnerable,20000,-21.5812,-55.0759
Karelian (Karelia),Finland,Definitely endangered,20000,63.0474,33.4616
Karelian (Karelia),Russian Federation,Definitely endangered,20000,63.0474,33.4616
Khoirao,India,Vulnerable,20000,25.2198,94.1583
Manchad,India,Vulnerable,20000,32.6578,77.5415
Mariupolitan Greek,Ukraine,Severely endangered,20000,47.1364,37.5444
Padam,India,Vulnerable,20000,28.2463,95.3668
Pemon (Venezuela),Guyana,Vulnerable,20000,5.1347,-61.853
Pemon (Venezuela),Venezuela (Bolivarian Republic of),Vulnerable,20000,5.1347,-61.853
Tacenwit,Algeria,Vulnerable,20000,36.5703,2.2892
Tangwang,China,Definitely endangered,20000,35.7643,102.8979
Western Neo-Aramaic,Syrian Arab Republic,Definitely endangered,20000,33.8339,36.5405
Yaghnobi,Tajikistan,Definitely endangered,20000,38.5632,68.4475
Yaw,Myanmar,Definitely endangered,20000,21.6,94.8333
Yeyi,Botswana,Definitely endangered,20000,-19.4562,23.2031
Boro,NA,Definitely endangered,19878,10.3581,35.0024
Sorbian,Germany,Definitely endangered,19500,51.5001,14.4744
Biete,India,Definitely endangered,19000,25.6514,93.2409
Hrangkhol,India,Vulnerable,19000,24.1467,92.3071
Terena,Brazil,Severely endangered,19000,-20.2841,-55.4638
Kati,Pakistan,Definitely endangered,18700,35.3845,71.3177
Kati,Afghanistan,Definitely endangered,18700,35.3845,71.3177
Kulung,Nepal,Vulnerable,18686,27.518,86.9375
Kaingang,Brazil,Definitely endangered,18500,-28.1495,-52.4707
Lowland Mazatec,Mexico,Vulnerable,18389,18.0801,-96.5236
Vafsi,Iran (Islamic Republic of),Definitely endangered,18000,34.0867,49.8861
Bassari,Senegal,Vulnerable,17910,12.4419,-12.6617
Bayot,Senegal,Vulnerable,17150,12.4218,-16.4149
Pochuri,India,Vulnerable,17000,25.6712,94.779
Tamahaq (Libya),Libyan Arab Jamahiriya,Definitely endangered,17000,24.9611,10.1733
Swampy Cree,Canada,Vulnerable,16685,53.9849,-97.7626
Koraga,India,Critically endangered,16665,11.6952,75.6738
Oyda,Ethiopia,Vulnerable,16597,5.9438,36.6503
Pangvali,India,Critically endangered,16285,33.4589,76.9152
Shipibo-Conibo,Peru,Definitely endangered,16085,-8.4289,-74.6411
Amba,Uganda,Vulnerable,16000,0.6737,30.198
Tsez,Russian Federation,Definitely endangered,15356,42.2376,45.8734
Bonan,China,Definitely endangered,15000,36.089,102.843
Chrau,Viet Nam,Definitely endangered,15000,10.5634,107.1496
Dari,Iran (Islamic Republic of),Definitely endangered,15000,31.8402,54.1625
Dzala,Bhutan,Vulnerable,15000,27.7078,91.3623
Ersu,China,Definitely endangered,15000,28.7778,102.1277
Gangte,India,Definitely endangered,15000,24.1968,93.587
Gurdu-Mbaaru,Nigeria,Severely endangered,15000,9.7415,10.4534
Ha-lung Tibetan,Nepal,Definitely endangered,15000,27.6831,87.8256
Hlersu,China,Vulnerable,15000,24.3789,102.046
Juk,Lao People's Democratic Republic,Definitely endangered,15000,15.3333,106.85
Kwama,Ethiopia,Vulnerable,15000,9.5465,34.2059
Laemae,China,Severely endangered,15000,26.4179,98.7758
Lavua,Thailand,Definitely endangered,15000,18.4483,98.1848
Macushi (Brazil),Brazil,Vulnerable,15000,3.7765,-61.1279
Nahali,India,Definitely endangered,15000,21.4735,74.0258
Naluo,China,Vulnerable,15000,26.5895,100.8506
Nyoe,Thailand,Definitely endangered,15000,14.9102,104.6049
O'odham (Akimel),United States of America,Definitely endangered,15000,33.059,-112.0479
O'odham (Tohono),United States of America,Definitely endangered,15000,31.9186,-111.8798
Paiwan,China,Vulnerable,15000,22.4313,120.7809
Rao,China,Definitely endangered,15000,25.871,107.0476
Semai,Malaysia,Severely endangered,15000,4.3039,101.445
Shatt,Sudan,Severely endangered,15000,10.8117,29.7235
Siwi,Egypt,Definitely endangered,15000,29.1905,25.5322
Tagargrent,Algeria,Severely endangered,15000,30.9587,4.0209
Tayurayt,Algeria,Vulnerable,15000,36.5648,1.9061
Totoli,Indonesia,Vulnerable,15000,0.8953,120.2838
Aruaco,Colombia,Vulnerable,14799,10.0986,-73.5424
Yakkha,Nepal,Critically endangered,14648,27.1908,87.3358
Kuruba,India,Critically endangered,14613,11.4369,76.3549
Tuamotuan,French Polynesia (France),Definitely endangered,14400,-14.9354,-147.7455
Katla,Sudan,Definitely endangered,14208,11.7329,29.3939
Garífuna (Belize),Belize,Vulnerable,14061,17.1833,-88.5833
Thulung,Nepal,Definitely endangered,14034,27.4534,86.6423
Bawm,Bangladesh,Definitely endangered,14000,22.1874,92.6477
Bawm,India,Definitely endangered,14000,22.1874,92.6477
Guajajara,Brazil,Vulnerable,14000,-4.8282,-46.8017
Niuean,Niue,Definitely endangered,14000,-19.0491,-169.8706
Uhunduni,Indonesia,Vulnerable,14000,-4.2054,137.031
Gusilay,Senegal,Vulnerable,13950,12.7019,-16.4382
Xavante,Brazil,Vulnerable,13303,-14.4832,-53.5305
Dondo,Indonesia,Vulnerable,13000,0.747,120.4266
Khampti,India,Vulnerable,13000,27.8827,96.5093
Nalu,Guinea,Definitely endangered,13000,10.9523,-14.7629
Tagoi,Sudan,Severely endangered,13000,10.8252,30.1657
Karko,Sudan,Definitely endangered,12986,11.964,29.4186
San Mateo del Mar Huave,Mexico,Vulnerable,12667,16.2,-94.9833
Q'eqchi' (Belize),Belize,Vulnerable,12366,16.8107,-88.3999
Kadaru,Sudan,Definitely endangered,12360,12.1789,30.2398
Mazatlán Mazatec,Mexico,Vulnerable,12340,18.033,-96.8999
Badiaranke,Guinea,Severely endangered,12205,12.4043,-13.5736
Alune,Indonesia,Vulnerable,12000,-3.0637,128.3752
Bangani,India,Critically endangered,12000,29.8692,79.0686
Chamalal,Russian Federation,Definitely endangered,12000,42.5712,46.0739
Chru,Viet Nam,Vulnerable,12000,11.4666,109.05
Hill Miri,India,Definitely endangered,12000,27.7078,94.0374
Jinuo,China,Definitely endangered,12000,21.4758,101.3111
Muya,China,Vulnerable,12000,30.2593,101.7497
Samei,China,Severely endangered,12000,25.0756,103.0133
Tajio,Indonesia,Vulnerable,12000,-0.0954,120.0173
Tobada',Indonesia,Extinct,12000,-2.019,119.4708
Yurt Tatar,Russian Federation,Definitely endangered,12000,46.3943,48.3288
Yaqui (Mexico),Mexico,Vulnerable,11806,27.6436,-110.296
Ch'orti' (Guatemala),Guatemala,Definitely endangered,11734,14.968,-89.2905
Filomeno Mata Totonac,Mexico,Vulnerable,11710,20.198,-97.7022
Northern Totonac,Mexico,Critically endangered,11529,20.2741,-97.955
Komo,Ethiopia,Definitely endangered,11500,9.0804,34.0905
Komo,Sudan,Definitely endangered,11500,9.0804,34.0905
Tuwuli,Ghana,Vulnerable,11400,7.0572,0.3845
Poqomam,Guatemala,Definitely endangered,11273,14.6455,-89.7274
Idu,China,Definitely endangered,11101,28.6496,95.8419
Idu,India,Definitely endangered,11101,28.6496,95.8419
Kari'ña (Venezuela),Venezuela (Bolivarian Republic of),Severely endangered,11000,8.4941,-64.0942
Machiguenga,Peru,Definitely endangered,11000,-11.8888,-72.9052
Piaroa (Venezuela),Venezuela (Bolivarian Republic of),Vulnerable,11000,4.5435,-66.7089
Tuvaluan,Tuvalu,Definitely endangered,11000,-8.5049,179.187
Waunana (Colombia),Colombia,Vulnerable,11000,4.2806,-77.0581
Noon,Senegal,Vulnerable,10925,14.8173,-16.5234
Sampang,Nepal,Vulnerable,10810,27.257,86.9444
Central Alaskan Yupik (2),United States of America,Vulnerable,10400,61.4387,-160.4882
Central Alaskan Yupik (Nuniak Island),United States of America,Vulnerable,10400,59.8889,-166.289
Bukiyip,Papua New Guinea,Vulnerable,10304,-3.4256,143.0886
Saparua,Indonesia,Definitely endangered,10216,-3.5757,128.6464
Darai,Nepal,Severely endangered,10210,27.9264,84.331
Bandial,Senegal,Vulnerable,10125,12.5317,-16.1553
Bongo,Sudan,Definitely endangered,10084,6.1405,31.7999
Northwestern Tarahumara,Mexico,Vulnerable,10031,27.9169,-107.0552
Algherese Catalan,Italy,Definitely endangered,10000,40.5638,8.3276
Aragonese,Spain,Definitely endangered,10000,42.2935,-0.4394
Baima,China,Vulnerable,10000,33.1531,103.8696
Bukharic,Uzbekistan,Definitely endangered,10000,39.8043,64.4224
Bunun,China,Vulnerable,10000,23.3624,121.1077
Burunge,United Republic of Tanzania,Vulnerable,10000,-4.7297,35.7769
Chayahuita,Peru,Definitely endangered,10000,-5.3425,-76.6955
Cherokee (Oklahoma),United States of America,Definitely endangered,10000,36.7544,-98.3569
Dalecarlian,Sweden,Definitely endangered,10000,61.2385,14.0295
"Huitoto (Colombia, Peru)",Colombia,Definitely endangered,10000,-3.0308,-71.8066
"Huitoto (Colombia, Peru)",Peru,Definitely endangered,10000,-3.0308,-71.8066
Hulaula (Israel),Israel,Severely endangered,10000,32.2128,34.9118
Karang,Chad,Vulnerable,10000,8.3093,15.3588
Karelian (Tver),Russian Federation,Definitely endangered,10000,58.1533,36.101
Karone,Senegal,Vulnerable,10000,12.7769,-16.7733
Kryz,Azerbaijan,Severely endangered,10000,41.1455,48.164
"Kurripako (Colombia, Venezuela)",Colombia,Definitely endangered,10000,2.3723,-67.5659
"Kurripako (Colombia, Venezuela)",Venezuela (Bolivarian Republic of),Definitely endangered,10000,2.3723,-67.5659
Kurtöp,Bhutan,Vulnerable,10000,27.7127,90.9667
Lamgang,India,Critically endangered,10000,24.2569,94.0759
Miqie,China,Definitely endangered,10000,26.9053,100.8506
Mojo,Bolivia (Plurinational State of),Definitely endangered,10000,-14.966,-65.1708
Muot,India,Critically endangered,10000,8.0932,93.4963
Naiki,India,Critically endangered,10000,19.8287,78.2281
Ñandeva Guarani,Brazil,Vulnerable,10000,-22.0652,-54.7558
Ngwaba,Nigeria,Severely endangered,10000,9.9904,12.81
North Frisian,Germany,Severely endangered,10000,54.7341,8.7478
Northern Khanty,Russian Federation,Definitely endangered,10000,63.7047,66.676
Nyah Kur,Thailand,Definitely endangered,10000,15.6587,101.5068
Nyenkha,Bhutan,Vulnerable,10000,27.4595,90.4119
Orang Hulu,Malaysia,Definitely endangered,10000,1.8871,103.984
Otoro,Sudan,Severely endangered,10000,11.1864,30.6353
Solon,China,Definitely endangered,10000,48.166,119.4873
Southern Tujia,China,Severely endangered,10000,28.258,109.9398
Taba,Indonesia,Vulnerable,10000,0.0659,127.4084
Talu,China,Vulnerable,10000,26.5623,102.8506
Tamazight (Tunisia),Tunisia,Severely endangered,10000,36.0313,9.8767
Tayal,China,Vulnerable,10000,24.5458,121.3591
Temein,Sudan,Severely endangered,10000,11.8377,29.4625
Temiar,Malaysia,Definitely endangered,10000,4.9493,101.4113
Trukhmen,Russian Federation,Definitely endangered,10000,44.4886,44.5385
Trukhmen,Turkmenistan,Definitely endangered,10000,44.4886,44.5385
Vidunda,United Republic of Tanzania,Vulnerable,10000,-6.8664,37.304
Kogui,Colombia,Vulnerable,9911,10.8548,-74.0258
Paloor,Senegal,Vulnerable,9680,14.7801,-16.8035
Awakatek (Guatemala),Guatemala,Vulnerable,9613,15.3429,-91.312
Choctaw (Louisiana),United States of America,Vulnerable,9500,31.6822,-92.1252
Choctaw (Mississipi),United States of America,Vulnerable,9500,32.7713,-89.1163
Choctaw (Oklahoma),United States of America,Vulnerable,9500,34.1472,-94.81
Gawar-Bati,Pakistan,Definitely endangered,9500,35.158,71.4083
Gawar-Bati,Afghanistan,Definitely endangered,9500,35.158,71.4083
Taruang,China,Vulnerable,9332,28.12,95.88
Taruang,India,Vulnerable,9332,28.12,95.88
Taruang,Myanmar,Vulnerable,9332,28.12,95.88
Khaling,Nepal,Definitely endangered,9288,27.5781,86.7163
Western Tarahumara,Mexico,Vulnerable,9196,27.3361,-108.5007
Nunavimmiutitut,Canada,Vulnerable,9105,58.1665,-68.3605
Woods Cree,Canada,Vulnerable,9095,55.1711,-102.9061
Phula (Viet Nam),Viet Nam,Definitely endangered,9046,22.7833,105.4666
Dol-po,Nepal,Definitely endangered,9000,29.2193,83.0676
Helong,Indonesia,Severely endangered,9000,-10.1905,123.5247
Lisela,Indonesia,Vulnerable,9000,-3.2392,127.0239
Motuo Menba,China,Definitely endangered,9000,28.664,94.0347
Motuo Menba,India,Definitely endangered,9000,28.664,94.0347
Panamahka,Nicaragua,Vulnerable,9000,14.2856,-84.5947
Zuni,United States of America,Vulnerable,9000,35.082,-108.76
Mopán (Belize),Belize,Severely endangered,8980,16.2449,-88.8654
Tulishi,Sudan,Severely endangered,8628,11.5984,29.0917
Central Cuicatec,Mexico,Vulnerable,8621,17.8,-96.961
Ts'amay,Ethiopia,Definitely endangered,8621,5.4382,37.2463
Phalura,Pakistan,Definitely endangered,8600,35.7264,71.7434
Northern Popoloc,Mexico,Vulnerable,8597,18.6818,-97.658
Ixcatlán Mazatec,Mexico,Vulnerable,8593,18.1447,-96.4855
Patla-Chicontla Totonac,Mexico,Severely endangered,8590,20.1644,-97.6927
Toram,Chad,Severely endangered,8456,11.1581,19.6023
Northwestern Tlapanec,Mexico,Vulnerable,8409,17.5595,-98.9332
Dene,Canada,Vulnerable,8195,56.4807,-109.4127
Micmac (Massachusetts),United States of America,Definitely endangered,8145,42.3589,-71.0578
Argobba,Ethiopia,Critically endangered,8000,10.5958,39.9792
Austral dialects,French Polynesia (France),Definitely endangered,8000,-23.3775,-149.4909
Belanda Bor,Sudan,Definitely endangered,8000,6.4954,27.7404
Feroge,Sudan,Vulnerable,8000,8.5049,25.7189
Hachijo,Japan,Definitely endangered,8000,33.11,139.7891
Inga,Colombia,Severely endangered,8000,1.1658,-77.0011
Kanga,Sudan,Severely endangered,8000,10.844,29.4708
Lajia,China,Definitely endangered,8000,23.7439,110.0526
Lakha,Bhutan,Definitely endangered,8000,27.5898,90.3735
Mbya Guarani (Paraguay),Paraguay,Definitely endangered,8000,-26.5099,-55.2832
Mundurukú,Brazil,Vulnerable,8000,-8.1027,-57.3486
Ojibwe,United States of America,Severely endangered,8000,46.0706,-93.6677
Quichua (Salasaca),Ecuador,Definitely endangered,8000,-1.3511,-78.6511
Rongpo,India,Vulnerable,8000,30.7229,79.7387
Sanyi,China,Severely endangered,8000,24.9262,102.5134
Temuan,Malaysia,Severely endangered,8000,3.3709,101.984
Tingal,Sudan,Definitely endangered,8000,12.238,31.1215
Wampis,Peru,Vulnerable,8000,-3.4476,-77.7941
Wunai Bunu,China,Definitely endangered,8000,24.4146,107.8378
Yanesha,Peru,Severely endangered,8000,-10.3743,-75.2343
Mam (Mexico),Mexico,Severely endangered,7977,17.3661,-93.5334
Pana,Burkina Faso,Definitely endangered,7800,13.165,-3.4277
Macushi (Guyana),Guyana,Vulnerable,7750,3.6888,-59.4799
Chukchi,Russian Federation,Severely endangered,7742,67.6248,176.1767
Cabécar,Costa Rica,Vulnerable,7622,9.9012,-83.6844
Awa Cuaiquer,Colombia,Critically endangered,7500,1.4939,-78.5742
Lishana Deni (Israel),Israel,Severely endangered,7500,31.7748,35.1013
Central Pame,Mexico,Vulnerable,7399,21.9208,-99.3741
Puinave,Colombia,Definitely endangered,7377,4.434,-68.1591
Puinave,Venezuela (Bolivarian Republic of),Definitely endangered,7377,4.434,-68.1591
Mebengokre,Brazil,Vulnerable,7266,-6.5569,-52.4707
Tunebo,Colombia,Definitely endangered,7231,6.4463,-72.0483
Tunebo,Venezuela (Bolivarian Republic of),Definitely endangered,7231,6.4463,-72.0483
Quechua of Peruvian Amazonia,Peru,Vulnerable,7200,-2.3723,-74.1137
Asur,India,Definitely endangered,7000,22.4719,84.9023
Bashkardi,Iran (Islamic Republic of),Definitely endangered,7000,28.5169,57.7551
Burji,Kenya,Vulnerable,7000,2.1857,37.9248
Choyi,China,Definitely endangered,7000,30.8519,99.6659
Gazi,Iran (Islamic Republic of),Definitely endangered,7000,32.8036,51.6211
Guichong,China,Vulnerable,7000,30.8148,101.7021
Karagash,Russian Federation,Definitely endangered,7000,47.2643,47.2412
Natanzi,Iran (Islamic Republic of),Severely endangered,7000,33.452,51.3006
Nayini,Iran (Islamic Republic of),Severely endangered,7000,32.8519,53.1573
Parya,Uzbekistan,Severely endangered,7000,38.5094,68.0932
Parya,Tajikistan,Severely endangered,7000,38.5094,68.0932
Parya,Afghanistan,Severely endangered,7000,38.5094,68.0932
Segeju,United Republic of Tanzania,Severely endangered,7000,-4.8173,39.0783
Sivandi,Iran (Islamic Republic of),Definitely endangered,7000,29.9168,51.5945
Soi,Iran (Islamic Republic of),Definitely endangered,7000,31.6533,55.6787
Tucano (Brazil),Brazil,Vulnerable,7000,0.1757,-67.2363
Wapishana (Guyana),Guyana,Vulnerable,7000,2.3065,-59.6997
Yulu,Central African Republic,Vulnerable,7000,8.3854,24.1754
Yulu,Democratic Republic of the Congo,Vulnerable,7000,8.3854,24.1754
Yulu,Sudan,Vulnerable,7000,8.3854,24.1754
Zhaba,China,Vulnerable,7000,31.4,100.4734
Sakapultek,Guatemala,Definitely endangered,6973,14.9752,-91.0527
Chara,Ethiopia,Vulnerable,6932,6.479,36.3647
Kosraean,Micronesia (Federated States of),Severely endangered,6900,5.322,162.9904
Kosraean,Nauru,Severely endangered,6900,5.322,162.9904
Waunana (Panama),Panama,Severely endangered,6882,8.2984,-78.1018
San Francisco del Mar Huave,Mexico,Critically endangered,6874,16.3333,-94.5166
Northern East Cree,Canada,Vulnerable,6870,53.6916,-78.8011
Micmac (Canada),Canada,Vulnerable,6850,45.9646,-60.6172
Northern Tepehuán,Mexico,Definitely endangered,6802,26.4258,-107.2683
Miju,China,Vulnerable,6700,28.1155,96.2896
Miju,India,Vulnerable,6700,28.1155,96.2896
Rio Grande Keresan,United States of America,Definitely endangered,6685,35.5147,-106.3655
Western Mazatec,Mexico,Vulnerable,6639,18.1351,-96.9057
Bussa,Ethiopia,Vulnerable,6624,5.7225,37.1406
Beli,Sudan,Definitely endangered,6600,6.4736,29.2675
Chesu,China,Definitely endangered,6600,24.4211,102.0459
Thuri,Sudan,Vulnerable,6600,8.4397,25.4333
Karata,Russian Federation,Definitely endangered,6574,42.5874,46.3348
Saulteau,Canada,Vulnerable,6558,50.5573,-98.6562
Kumale,Nepal,Severely endangered,6533,27.788,84.548
Lower Northwestern Otomí,Mexico,Vulnerable,6509,20.1865,-100.1469
Dimme,Ethiopia,Vulnerable,6501,5.9548,36.2988
Chiquitano (Bolivia),Bolivia (Plurinational State of),Definitely endangered,6500,-16.5835,-61.6113
Tumtum,Sudan,Severely endangered,6500,10.477,30.4321
Bezhta,Russian Federation,Definitely endangered,6461,42.1369,46.1508
Thakali,Nepal,Vulnerable,6441,28.7146,83.6478
Dongotono,Sudan,Vulnerable,6219,4.965,35.321
Mawé,Brazil,Vulnerable,6219,-3.8642,-56.7773
Shor,Russian Federation,Severely endangered,6210,53.0544,87.7478
Central Tlapanec,Mexico,Vulnerable,6191,17.2624,-98.7482
Oji-Cree,Canada,Vulnerable,6110,53.8141,-94.8977
Keiga,Sudan,Severely endangered,6072,11.3184,29.696
Ampibabo Lauje,Indonesia,Vulnerable,6000,0.3295,120.1904
Cashinahua (Brazil),Brazil,Vulnerable,6000,-9.2603,-71.5304
Geji cluster,Nigeria,Severely endangered,6000,10.196,9.5581
Mbya Guarani (Brazil),Brazil,Vulnerable,6000,-30.1451,-50.625
Moklen,Myanmar,Definitely endangered,6000,8.1953,98.3036
Moklen,Thailand,Definitely endangered,6000,8.1953,98.3036
Nauruan,Nauru,Severely endangered,6000,-0.53,166.9221
Nheengatu / Yeral (Brazil),Brazil,Severely endangered,6000,-0.4833,-67.0166
Parachi,Afghanistan,Definitely endangered,6000,34.4658,68.637
Quechua of San Martín,Peru,Severely endangered,6000,-6.5336,-76.4428
Sawkna,Libyan Arab Jamahiriya,Critically endangered,6000,27.252,17.7539
Sulung,China,Definitely endangered,6000,27.839,92.8784
Sulung,India,Definitely endangered,6000,27.839,92.8784
Tindi,Russian Federation,Definitely endangered,6000,42.466,46.1453
Western Apache,United States of America,Definitely endangered,6000,33.2563,-110.4637
Yanomami (Brazil),Brazil,Vulnerable,6000,3.0746,-63.457
Yazgulami,Tajikistan,Severely endangered,6000,38.1982,71.4276
Chantyal,Nepal,Definitely endangered,5912,28.4493,83.4054
Mortlockese,Micronesia (Federated States of),Definitely endangered,5904,5.5811,153.5668
Baníwa do Içana,Brazil,Vulnerable,5811,1.2743,-68.291
Baníwa do Içana,Colombia,Vulnerable,5811,1.2743,-68.291
Baníwa do Içana,Venezuela (Bolivarian Republic of),Vulnerable,5811,1.2743,-68.291
"Akawaio (Guyana, Venezuela)",Guyana,Definitely endangered,5800,5.3753,-60.5126
"Akawaio (Guyana, Venezuela)",Venezuela (Bolivarian Republic of),Definitely endangered,5800,5.3753,-60.5126
Akhvakh,Russian Federation,Definitely endangered,5793,42.472,46.3238
Veps,Russian Federation,Severely endangered,5753,60.3269,34.8046
Qikiqtaaluk nigiani,Canada,Vulnerable,5740,63.7577,-68.5178
Sipakapense,Guatemala,Definitely endangered,5687,15.2121,-91.6335
Bribri (Costa Rica),Costa Rica,Vulnerable,5647,9.5596,-83.3073
Bainouk-Gunyaamolo,Senegal,Vulnerable,5635,12.7421,-16.1141
Kwatay,Senegal,Severely endangered,5625,12.4204,-16.7596
Baheng (Viet Nam),Viet Nam,Vulnerable,5569,22.8166,106.35
Central Zoque,Mexico,Definitely endangered,5500,17.0965,-93.2095
Dameli,Pakistan,Severely endangered,5500,35.578,71.8684
Sak (Bangladesh),Bangladesh,Severely endangered,5500,21.5041,92.2055
Yidgha,Pakistan,Definitely endangered,5500,36.0024,71.6006
Southeastern Tarahumara,Mexico,Vulnerable,5406,26.0891,-106.9645
Chimané,Bolivia (Plurinational State of),Vulnerable,5300,-15.2629,-66.8518
Dilling,Sudan,Definitely endangered,5295,12.0178,29.663
San Dionisio del Mar Huave,Mexico,Definitely endangered,5165,16.3166,-94.75
Lafofa,Sudan,Severely endangered,5140,10.3716,30.6243
Akeu,Lao People's Democratic Republic,Definitely endangered,5000,21.5833,101.0166
Akeu,Myanmar,Definitely endangered,5000,21.5833,101.0166
Akeu,Thailand,Definitely endangered,5000,21.5833,101.0166
Anung (China),China,Critically endangered,5000,26.7368,98.7766
Bagvalal,Russian Federation,Definitely endangered,5000,42.5247,46.192
Bambassi,Ethiopia,Definitely endangered,5000,9.7469,34.7662
Barí,Colombia,Vulnerable,5000,9.0261,-73.2678
Bartangi,Tajikistan,Severely endangered,5000,38.048,71.8286
Bokar,China,Vulnerable,5000,28.8735,94.3807
Bokar,India,Vulnerable,5000,28.8735,94.3807
Brokpa,Bhutan,Definitely endangered,5000,27.3766,91.9981
Creek,United States of America,Definitely endangered,5000,35.6319,-95.9616
Cubeo (Colombia),Colombia,Vulnerable,5000,1.5,-70.5
Dagur (Hailar),China,Definitely endangered,5000,48.6111,119.7949
Damal,Indonesia,Vulnerable,5000,-4.2806,137.0324
Dhaiso,United Republic of Tanzania,Definitely endangered,5000,-5.0745,38.4741
Gorum,India,Definitely endangered,5000,18.667,83.0346
Guarayu,Bolivia (Plurinational State of),Definitely endangered,5000,-15.919,-62.8747
Gutnish,Sweden,Definitely endangered,5000,57.3027,18.5284
Hopi,United States of America,Vulnerable,5000,35.8721,-110.6205
Ilue,Nigeria,Critically endangered,5000,4.9185,8.2397
Jibbali,Oman,Severely endangered,5000,18.0623,52.4267
Kalasha,Pakistan,Severely endangered,5000,35.6684,71.7201
Kami,United Republic of Tanzania,Severely endangered,5000,-6.8937,37.1337
Kathu,China,Definitely endangered,5000,24.136,105.249
Khojki,Oman,Severely endangered,5000,23.6193,58.5653
Khwe,Namibia,Definitely endangered,5000,-18.271,21.4892
Kom,India,Definitely endangered,5000,24.0414,93.6639
Korandje,Algeria,Severely endangered,5000,29.4049,-3.2605
Lachi,Viet Nam,Definitely endangered,5000,22.5,104.1333
Mak,China,Definitely endangered,5000,25.5532,107.3809
Manihiki,Cook Islands,Definitely endangered,5000,-10.4,-161
Megleno-Romanian,Greece,Severely endangered,5000,41.1042,22.2025
Megleno-Romanian,The former Yugoslav Republic of Macedonia,Severely endangered,5000,41.1042,22.2025
Miji,India,Definitely endangered,5000,27.3351,92.5735
Mo'ang (China),China,Definitely endangered,5000,23.8421,103.9116
Mo'ang (Viet Nam),Viet Nam,Definitely endangered,5000,22.7833,105.3666
Molise Croatian,Italy,Severely endangered,5000,41.8787,14.7065
Moroccan Judeo-Arabic (Morocco),Morocco,Severely endangered,5000,34.0435,-5.0097
Namuyi,China,Vulnerable,5000,28.0727,101.9565
Padoe,Indonesia,Vulnerable,5000,-2.6467,121.2615
Patamona (Guyana),Guyana,Vulnerable,5000,4.5873,-59.8095
Pu,India,Critically endangered,5000,8.2549,93.1022
Pume,Venezuela (Bolivarian Republic of),Definitely endangered,5000,6.7518,-68.247
Singpho,India,Definitely endangered,5000,27.5569,96.7456
Turi,India,Definitely endangered,5000,21.8411,87.2973
Udi (Azerbaijan),Azerbaijan,Severely endangered,5000,41.0689,47.4609
Yecuana (Venezuela),Venezuela (Bolivarian Republic of),Vulnerable,5000,4.8501,-64.5117
Jirel,Nepal,Definitely endangered,4919,27.6419,86.2123
Dolgan,Russian Federation,Definitely endangered,4865,71.3851,97.3388
Romani (Colombia),Colombia,Vulnerable,4858,NA,NA
Tsum,Nepal,Definitely endangered,4786,28.4723,85.008
Northern Tlapanec,Mexico,Vulnerable,4771,17.4203,-98.7814
Taroko,China,Vulnerable,4750,24.0916,121.5218
Kivallirmiutut,Canada,Vulnerable,4675,61.0982,-94.1201
Puebla Mazatec,Mexico,Vulnerable,4660,18.476,-96.8351
Zapotec of Petapa,Mexico,Definitely endangered,4613,16.8333,-95.1166
Dungmali,Nepal,Definitely endangered,4609,27.1874,87.1902
Saryg Yugur,China,Severely endangered,4600,39.2747,98.8439
Qikiqtaaluk uannangani,Canada,Vulnerable,4550,69.3878,-81.615
Afitti,Sudan,Severely endangered,4512,12.4419,30.7534
Nomatsiguenga,Peru,Severely endangered,4500,-11.3292,-74.3664
Piapoko,Colombia,Definitely endangered,4500,4.0396,-68.0712
Piapoko,Venezuela (Bolivarian Republic of),Definitely endangered,4500,4.0396,-68.0712
Tokelauan,Tokelau,Severely endangered,4500,-9.1699,-171.8206
Wotu,Indonesia,Vulnerable,4500,-2.6303,120.888
Wambule,Nepal,Vulnerable,4471,27.1746,86.4363
Southern East Cree,Canada,Vulnerable,4455,50.587,-73.6365
Arbore,Ethiopia,Definitely endangered,4441,5.069,36.892
Ebang,Sudan,Severely endangered,4412,11.313,30.5886
Tafi,Ghana,Vulnerable,4400,6.73,0.4421
Puma,Nepal,Severely endangered,4310,26.9692,86.9004
Gyele,Cameroon,Definitely endangered,4280,2.2241,9.8986
Gyele,Equatorial Guinea,Definitely endangered,4280,2.2241,9.8986
Bwisi,Congo,Definitely endangered,4248,-3.5572,11.4477
Bwisi,Gabon,Definitely endangered,4248,-3.5572,11.4477
Eastern Montagnais,Canada,Vulnerable,4180,50.2136,-66.193
Atikamekw,Canada,Vulnerable,4155,47.2104,-74.3827
Western Zoque,Mexico,Vulnerable,4100,16.9063,-91.7333
Acoma-Laguna,United States of America,Definitely endangered,4000,34.8964,-107.5816
Aka,India,Definitely endangered,4000,27.1666,92.6312
Aka,Sudan,Definitely endangered,4000,27.1666,92.6312
Baga Manduri,Guinea,Definitely endangered,4000,10.0986,-14.0405
Baga Sitemu,Guinea,Severely endangered,4000,10.1094,-14.1586
Botlikh,Russian Federation,Definitely endangered,4000,42.6602,46.2222
Bunan,India,Definitely endangered,4000,32.7503,76.2451
Cashinahua (Peru),Peru,Definitely endangered,4000,-10.3581,-71.5869
Cha'palaa,Ecuador,Definitely endangered,4000,0.9386,-79.0055
Evenki (Manchuria),China,Severely endangered,4000,50.34,123.43
Gazhuo,China,Definitely endangered,4000,24.0959,102.5463
Godoberi,Russian Federation,Definitely endangered,4000,42.643,46.1027
"Kari'ña (Guyana, Suriname)",Guyana,Severely endangered,4000,6.8828,-60.2929
"Kari'ña (Guyana, Suriname)",Suriname,Severely endangered,4000,6.8828,-60.2929
Lishan Didan (Israel),Israel,Severely endangered,4000,32.0383,34.7827
Maleng,Lao People's Democratic Republic,Definitely endangered,4000,18.0166,105
Napu,Indonesia,Vulnerable,4000,-1.2882,120.2536
Rahambuu,Indonesia,Vulnerable,4000,-3.1898,121.0858
Shingsaba,China,Vulnerable,4000,27.7163,87.4731
Shingsaba,Nepal,Vulnerable,4000,27.7163,87.4731
Sinkiang Dagur,China,Definitely endangered,4000,46.7737,83.0017
Taa,Botswana,Definitely endangered,4000,-24.1367,20.1049
Tennet,Sudan,Vulnerable,4000,4.8611,33.2226
Wapishana (Brazil),Brazil,Definitely endangered,4000,2.8113,-61.2377
Yagua,Peru,Definitely endangered,4000,-3.3598,-72.3779
Yanomám,Brazil,Vulnerable,4000,3.3818,-63.8085
Yanomami (Venezuela),Venezuela (Bolivarian Republic of),Vulnerable,4000,2.5918,-64.7314
Younuo Bunu,China,Definitely endangered,4000,25.1463,106.5405
Zenaga (Mauritania),Mauritania,Severely endangered,4000,17.3086,-13.0078
Baghati,India,Critically endangered,3976,31.194,77.0471
Bharmauri,India,Definitely endangered,3976,32.4912,76.8383
Uspantek,Guatemala,Vulnerable,3971,15.3475,-90.8684
Khang Quang Lam,Viet Nam,Severely endangered,3921,22.0333,102.6666
Konni,Ghana,Vulnerable,3800,10.3311,-1.6973
Tocho,Sudan,Severely endangered,3800,10.8764,30.1135
Mixtec of the Puebla-Oaxaca border,Mexico,Definitely endangered,3791,18.1333,-97.6833
Nupri,Nepal,Definitely endangered,3776,28.6384,84.6079
Ayoreo,Bolivia (Plurinational State of),Definitely endangered,3700,-18.719,-59.6228
Moyon,India,Definitely endangered,3700,24.4171,94.378
Utsat,China,Definitely endangered,3700,18.2727,109.3871
Nayi,Ethiopia,Vulnerable,3656,7.2698,36.1724
Mussau-Emira,Papua New Guinea,Definitely endangered,3651,-1.4774,149.6392
Narim,Sudan,Definitely endangered,3623,4.9048,34.2224
Garífuna (Guatemala),Guatemala,Vulnerable,3564,15.8268,-88.7506
Nachiring,Nepal,Severely endangered,3553,27.4144,86.7521
Eastern Popoloc,Mexico,Vulnerable,3544,18.3322,-97.3471
Nding,Sudan,Critically endangered,3513,10.4121,30.6024
Anung (Myanmar),Myanmar,Severely endangered,3500,27.2,98.6333
Camsá,Colombia,Definitely endangered,3500,0.8788,-76.7724
Crow,United States of America,Definitely endangered,3500,45.5963,-107.4613
Sak (Myanmar),Myanmar,Vulnerable,3500,21.2333,93.0761
Shwai,Sudan,Critically endangered,3500,11.3184,30.4156
Wano,Indonesia,Definitely endangered,3500,-3.5463,137.9058
Northwestern Ojibwe,Canada,Vulnerable,3465,52.0016,-95.4274
Bakpinka,Nigeria,Critically endangered,3416,5.3644,8.2397
Morokodo,Sudan,Severely endangered,3400,6.0313,29.7949
Eloxochitlán Mazatec,Mexico,Vulnerable,3384,18.1754,-96.8765
Menik,Senegal,Definitely endangered,3375,12.7528,-12.2717
Teribe (Panama),Panama,Definitely endangered,3305,9.4472,-82.5166
Tima,Sudan,Severely endangered,3305,11.7033,29.1934
Mursi,Ethiopia,Vulnerable,3278,5.5831,36.5075
Pendau,Indonesia,Vulnerable,3200,0.1922,120.0091
Ayautla Mazatec,Mexico,Vulnerable,3192,18.019,-96.7441
Yucatec,Belize,Definitely endangered,3155,17.0922,-89.1221
Sayultec,Mexico,Definitely endangered,3150,17.8816,-94.9597
Eastern Tlapanec,Mexico,Vulnerable,3088,17.8135,-98.604
Juhur (Caucasus),Azerbaijan,Definitely endangered,3016,42.0044,48.2409
Juhur (Caucasus),Russian Federation,Definitely endangered,3016,42.0044,48.2409
Awjila,Libyan Arab Jamahiriya,Severely endangered,3000,26.6278,24.5214
Baleasang,Indonesia,Definitely endangered,3000,-0.0494,119.685
Benga,Gabon,Definitely endangered,3000,0.9997,9.8657
Benga,Equatorial Guinea,Definitely endangered,3000,0.9997,9.8657
Besoa,Indonesia,Vulnerable,3000,-1.7163,120.4211
Boni,Kenya,Definitely endangered,3000,-0.8294,40.8142
Bonjo,Congo,Severely endangered,3000,1.7712,17.9598
Brokshat,India,Definitely endangered,3000,34.6478,76.4978
Budukh,Azerbaijan,Severely endangered,3000,41.1207,48.3233
Dahaalik,Eritrea,Critically endangered,3000,15.6917,40.0671
East Greenlandic,Greenland (Kingdom of Denmark),Definitely endangered,3000,65.6061,-37.6858
Eastern Khanty,Russian Federation,Definitely endangered,3000,61.2491,74.5092
Fyem,Nigeria,Severely endangered,3000,9.6332,8.8632
Geta?,India,Severely endangered,3000,18.2293,82.727
Gura,Nigeria,Severely endangered,3000,10.075,6.8499
Harsusi,Oman,Definitely endangered,3000,19.9372,56.2637
Hozo,Ethiopia,Definitely endangered,3000,9.3352,34.53
Jemez,United States of America,Vulnerable,3000,35.6151,-106.7242
Kamara,Ghana,Definitely endangered,3000,9.0858,-2.2576
Kapingamarangi,Micronesia (Federated States of),Severely endangered,3000,1.0828,154.8081
Koitabu,Papua New Guinea,Vulnerable,3000,-9.346,147.1179
Kuk,Cameroon,Definitely endangered,3000,6.4326,10.2365
Lai,China,Definitely endangered,3000,24.4871,105.216
Limirong Tibetan,Nepal,Definitely endangered,3000,29.9164,81.7617
Lishanid Noshan (Israel),Israel,Severely endangered,3000,31.7188,34.7772
Lude,Russian Federation,Severely endangered,3000,61.5867,33.6813
"Mbya Guarani (Argentina, Uruguay)",Argentina,Severely endangered,3000,-29.6116,-57.4804
"Mbya Guarani (Argentina, Uruguay)",Uruguay,Severely endangered,3000,-29.6116,-57.4804
"Mohawk (Akwesasne, St. Regis)",United States of America,Definitely endangered,3000,45.0033,-74.6497
Nanay,China,Severely endangered,3000,49.3537,136.5243
Nanay,Russian Federation,Severely endangered,3000,49.3537,136.5243
Palu'e,Indonesia,Definitely endangered,3000,-8.3242,121.7106
Panare,Venezuela (Bolivarian Republic of),Vulnerable,3000,6.5445,-66.4233
Pilagá,Argentina,Vulnerable,3000,-25.4035,-58.6669
Pitjantjatjara,Australia,Vulnerable,3000,-26.0719,129.9517
Pukur,Guinea,Definitely endangered,3000,10.4013,-14.4799
Rotuman,Fiji,Vulnerable,3000,-12.5063,177.0776
Savi,Pakistan,Definitely endangered,3000,35.2085,71.845
Savi,Afghanistan,Definitely endangered,3000,35.2085,71.845
Sherdukpen,India,Vulnerable,3000,27.1935,92.351
Shira Yugur,China,Severely endangered,3000,39.1002,99.2065
Takahanyilang,India,Critically endangered,3000,6.85,93.8726
U,China,Definitely endangered,3000,23.4844,99.8404
Ulithian,Micronesia (Federated States of),Severely endangered,3000,10.0229,139.6801
Waima'a,Timor-Leste,Definitely endangered,3000,-8.4995,126.3372
Warlpiri,Australia,Vulnerable,3000,-20.8177,131.6601
Yukpa,Venezuela (Bolivarian Republic of),Vulnerable,3000,9.7956,-72.9382
Western Montagnais,Canada,Vulnerable,2980,48.9635,-68.5729
Waiwai (Brazil),Brazil,Vulnerable,2916,-0.7909,-58.2714
Jersey French,United Kingdom of Great Britain and Northern Ireland,Severely endangered,2874,49.2211,-2.1368
Bahing,Nepal,Definitely endangered,2765,27.3126,86.5571
Stoney,Canada,Vulnerable,2765,51.161,-114.8533
Southwestern Tepehuan,Mexico,Vulnerable,2756,22.8349,-105.7276
Northern Mansi,Russian Federation,Severely endangered,2746,62.6539,63.1494
Bisu,Myanmar,Definitely endangered,2740,19.715,99.6789
Bisu,Thailand,Definitely endangered,2740,19.715,99.6789
Wari,Brazil,Definitely endangered,2721,-11.7275,-65.0061
Pakan,China,Definitely endangered,2700,23.7447,105.2235
Yami,China,Vulnerable,2700,22.0512,121.5403
Ko,Sudan,Critically endangered,2683,10.6714,30.8386
Yuracaré,Bolivia (Plurinational State of),Definitely endangered,2675,-16.6888,-65.4345
Aimol,India,Critically endangered,2643,24.4971,93.6145
Kohi,Nepal,Vulnerable,2641,27.3607,86.8661
Chatino of the western lowlands,Mexico,Definitely endangered,2640,16.3049,-97.5466
Bolo,Angola,Definitely endangered,2627,-10.5526,14.9633
Logol,Sudan,Severely endangered,2600,10.8521,30.6463
Sila,Lao People's Democratic Republic,Definitely endangered,2600,22.3094,102.041
Sila,Viet Nam,Definitely endangered,2600,22.3094,102.041
Pisaflores Tepehua,Mexico,Vulnerable,2578,20.6883,-98.0125
Xerente,Brazil,Severely endangered,2569,-9.3356,-48.2227
Bribri (Panama),Panama,Severely endangered,2521,9.4813,-82.6174
Achuar,Ecuador,Definitely endangered,2500,-2.8991,-77.4316
Achuar,Peru,Definitely endangered,2500,-2.8991,-77.4316
Bai,Sudan,Definitely endangered,2500,8.0592,25.5102
Banka,Mali,Definitely endangered,2500,11.4261,-5.6744
Culina (Peru),Peru,Definitely endangered,2500,-9.6224,-70.7958
Gadang,Chad,Definitely endangered,2500,10.3473,17.2485
Khinalug,Azerbaijan,Severely endangered,2500,41.1579,48.0706
Laomian (China),China,Definitely endangered,2500,23.7645,100.0195
Laomian (Myanmar),Myanmar,Definitely endangered,2500,22.6833,99.25
Lhokpu,Bhutan,Definitely endangered,2500,26.9514,89.2968
Martuwangka,Australia,Vulnerable,2500,-24.1975,122.9589
Mayoruna (Peru),Peru,Vulnerable,2500,-5.5285,-73.4765
Pingelapese,Micronesia (Federated States of),Severely endangered,2500,6.2279,160.7107
Rapanui,Chile,Severely endangered,2500,-27.108,-109.3579
Remo,India,Severely endangered,2500,19.1659,82.6391
Roshorvi,Tajikistan,Severely endangered,2500,38.1086,72.1719
Sanglechi,Tajikistan,Severely endangered,2500,36.6585,71.4784
Sanglechi,Afghanistan,Severely endangered,2500,36.6585,71.4784
Semelai,Malaysia,Severely endangered,2500,3.1761,102.4818
Urak Lawoi (Malaysia),Malaysia,Definitely endangered,2500,6.4194,99.7869
Urak Lawoi (Thailand),Thailand,Definitely endangered,2500,7.7756,98.3306
Zirenkel,Chad,Definitely endangered,2500,12.136,18.4735
Vumbu,Gabon,Definitely endangered,2460,-1.8783,10.816
Mopán (Guatemala),Guatemala,Severely endangered,2455,16.5144,-89.4167
Cuiba,Colombia,Severely endangered,2445,6.4463,-69.9389
Cuiba,Venezuela (Bolivarian Republic of),Severely endangered,2445,6.4463,-69.9389
Raji,Nepal,Severely endangered,2413,27.9721,82.3135
Highland Chontal,Mexico,Severely endangered,2410,16.2832,-95.857
Yasa,Cameroon,Definitely endangered,2401,2.3284,9.8464
Yasa,Equatorial Guinea,Definitely endangered,2401,2.3284,9.8464
Bumbita Arapesh,Papua New Guinea,Vulnerable,2353,-3.6449,142.8002
Mang (China),China,Definitely endangered,2300,22.8293,103.1039
Mang (Viet Nam),Viet Nam,Definitely endangered,2300,22.35,102.9666
Tlachichilco Tepehua,Mexico,Definitely endangered,2234,20.6205,-98.1991
Blackfoot (Canada),Canada,Definitely endangered,2200,49.3535,-113.2884
Jaya,Chad,Severely endangered,2200,12.187,18.1645
Karipuna do Amapá,Brazil,Vulnerable,2200,3.3379,-51.6796
Kulfa,Chad,Definitely endangered,2200,9.9742,19.1848
Krahô,Brazil,Vulnerable,2184,-8.4071,-47.2851
Kristang,Malaysia,Severely endangered,2150,2.1935,102.256
Yine,Peru,Definitely endangered,2150,-11.4584,-73.0261
North Alaskan Inupiaq (Kotzebue Sound),United States of America,Severely endangered,2144,66.8972,-162.5855
North Alaskan Inupiaq (North Slope),United States of America,Severely endangered,2144,71.2725,-156.7749
Seward Peninsula Inupiaq (King Island),United States of America,Critically endangered,2144,64.9728,-168.0616
Seward Peninsula Inupiaq (Little Diomede Island),United States of America,Critically endangered,2144,65.755,-168.9167
Seward Peninsula Inupiaq (Norton Sound),United States of America,Critically endangered,2144,64.5433,-163.029
Katukína-Kanamarí,Brazil,Vulnerable,2100,-5.6159,-68.7304
Tiwi,Australia,Vulnerable,2100,-11.6091,130.8911
Zaozou,China,Vulnerable,2100,26.1554,99.2944
Ngäbere (Costa Rica),Costa Rica,Definitely endangered,2041,8.4723,-82.9907
Aiton,India,Severely endangered,2000,26.6523,94.2901
Anindilyakwa,Australia,Vulnerable,2000,-13.9987,136.582
Apurinã,Brazil,Definitely endangered,2000,-5.4847,-63.8964
Arrernte,Australia,Vulnerable,2000,-24.1668,132.0996
Ashkun,Afghanistan,Definitely endangered,2000,34.9973,71.0746
Ata,Philippines,Critically endangered,2000,9.6081,122.9155
Athpahariya,Nepal,Definitely endangered,2000,26.952,87.3399
Ava-Guaraní,Argentina,Definitely endangered,2000,-23.1403,-64.3359
Bayso,Ethiopia,Definitely endangered,2000,6.4081,37.749
Birhor,India,Critically endangered,2000,21.7594,85.935
Boano,Indonesia,Vulnerable,2000,0.4724,120.9979
Bori,China,Definitely endangered,2000,28.9889,94.4439
Bori,India,Definitely endangered,2000,28.9889,94.4439
Chepya,Lao People's Democratic Republic,Definitely endangered,2000,21.3833,101.8166
Chilisso,Pakistan,Severely endangered,2000,35.2136,73.2396
Culina (Brazil),Brazil,Vulnerable,2000,-7.1008,-68.7744
Damana,Colombia,Definitely endangered,2000,10.9196,-73.4985
Duguza,Nigeria,Definitely endangered,2000,9.9039,9.1186
Galibi Marworno,Brazil,Vulnerable,2000,3.4256,-52.0312
Gats'ama - Ganjule - Harro,Ethiopia,Definitely endangered,2000,5.9548,37.5292
Gebe,Indonesia,Vulnerable,2000,-0.1922,129.5397
Ghadames,Libyan Arab Jamahiriya,Vulnerable,2000,30.1166,9.5251
Griko (Calabria),Italy,Severely endangered,2000,37.9961,15.9329
Huilliche,Chile,Critically endangered,2000,-40.4803,-73.5424
Ik,Uganda,Severely endangered,2000,3.5024,34.1894
Jangshung,India,Definitely endangered,2000,31.7748,78.4753
Jero,Nepal,Vulnerable,2000,27.2241,86.3909
Kari'ña (French Guyana),French Guiana (France),Definitely endangered,2000,5.5066,-53.6572
Khamnigan Mongol,China,Definitely endangered,2000,50.3454,114.1094
Khamnigan Mongol,Mongolia,Definitely endangered,2000,50.3454,114.1094
Khamnigan Mongol,Russian Federation,Definitely endangered,2000,50.3454,114.1094
Kona,Nigeria,Severely endangered,2000,9.0587,11.2829
Koreguaje,Colombia,Definitely endangered,2000,1,-75
Koryak,Russian Federation,Severely endangered,2000,61.8561,168.6621
Kota,India,Critically endangered,2000,11.4154,76.8576
Logorik,Sudan,Critically endangered,2000,11.1433,29.8306
Lule Saami,Norway,Severely endangered,2000,67.272,17.7978
Lule Saami,Sweden,Severely endangered,2000,67.272,17.7978
Luro,India,Critically endangered,2000,7.915,93.3837
Mambai,Chad,Severely endangered,2000,9.6007,14.0899
Milang,India,Definitely endangered,2000,28.488,95.2954
Mocoví,Argentina,Definitely endangered,2000,-27.6056,-59.7656
Momuna,Indonesia,Vulnerable,2000,-5,139
Mpi,Thailand,Definitely endangered,2000,18.2554,100.2227
Muda,China,Vulnerable,2000,21.8421,100.6851
Munji,Afghanistan,Severely endangered,2000,36.0379,70.6723
Nguon,Viet Nam,Vulnerable,2000,17.5333,105.3833
Nheengatu / Yeral (Venezuela),Venezuela (Bolivarian Republic of),Severely endangered,2000,1.2303,-66.8408
Nihali,India,Critically endangered,2000,20.5402,76.0913
Nyishangba,Nepal,Definitely endangered,2000,28.6423,84.1017
Ottawa (Walpole Island),Canada,Severely endangered,2000,42.6068,-82.5195
Ottawa (Walpole Island),United States of America,Severely endangered,2000,42.6068,-82.5195
Prasun,Afghanistan,Definitely endangered,2000,35.3543,71.26
Rukai,China,Vulnerable,2000,22.792,120.8104
Sáliba,Colombia,Severely endangered,2000,5.3097,-69.873
Sáliba,Venezuela (Bolivarian Republic of),Severely endangered,2000,5.3097,-69.873
Sangkong,China,Vulnerable,2000,21.5158,100.6957
Sarwa,Chad,Definitely endangered,2000,10.5958,17.0397
Shoshoni (Idaho),United States of America,Severely endangered,2000,43.0438,-112.4629
Shoshoni (Nevada),United States of America,Severely endangered,2000,40.0358,-113.9835
Shoshoni (Wyoming),United States of America,Severely endangered,2000,43.014,-108.8209
Tai Phake,India,Severely endangered,2000,27.5033,95.2185
Tamazight (Arzew),Algeria,Critically endangered,2000,35.5869,-0.4737
Tanglang,China,Vulnerable,2000,26.0863,99.7119
Tchitchege,Gabon,Definitely endangered,2000,-1.8508,13.612
Tinan,China,Definitely endangered,2000,32.519,77.6733
Tinan,India,Definitely endangered,2000,32.519,77.6733
Tsafiki,Ecuador,Definitely endangered,2000,-0.25,-79.15
Ukhwejo,Central African Republic,Severely endangered,2000,3.3626,16.0565
Urarina,Peru,Vulnerable,2000,-4.3464,-75.3002
Ushojo,Pakistan,Definitely endangered,2000,35.0209,72.897
Waigali,Afghanistan,Definitely endangered,2000,35.1895,71.1941
Waotededo,Ecuador,Vulnerable,2000,-1.1864,-76.6296
Wotapuri-Katarqalai,Afghanistan,Definitely endangered,2000,34.4166,70.3333
Wutun,China,Definitely endangered,2000,35.791,102.4365
Candoshi,Peru,Definitely endangered,1900,-3.7107,-76.9042
Hupda (Brazil),Brazil,Vulnerable,1900,0.7909,-68.247
Mixtec of the central Ravine,Mexico,Definitely endangered,1878,17.9666,-96.8333
Kendeje,Chad,Definitely endangered,1859,13.6299,21.5771
Hunzib,Russian Federation,Definitely endangered,1839,42.1654,46.2991
Tchumbuli,Benin,Critically endangered,1838,8.7113,2.1533
Cashibo-Cacataibo,Peru,Definitely endangered,1800,-8.9393,-75.0915
Grass Koiari,Papua New Guinea,Vulnerable,1800,-9.4558,147.5559
Isirawa,Indonesia,Vulnerable,1800,-1.8783,138.5485
Lanoh,Malaysia,Critically endangered,1800,5.2509,101.0206
Lemolang,Indonesia,Vulnerable,1800,-2.6303,120.1849
Nila (Seram Island),Indonesia,Definitely endangered,1800,-3.2173,128.9849
Shixing,China,Definitely endangered,1800,28.5263,100.4734
Chuj (Mexico),Mexico,Critically endangered,1771,16.1203,-92.0407
Darma,India,Definitely endangered,1761,30.0037,80.5641
Darma,Nepal,Definitely endangered,1761,30.0037,80.5641
Kung,Cameroon,Severely endangered,1750,6.5227,10.1074
Lokono (Guyana),Guyana,Critically endangered,1750,6.2934,-58.0957
Lokono (Guyana),Venezuela (Bolivarian Republic of),Critically endangered,1750,6.2934,-58.0957
Byangsi,India,Definitely endangered,1734,30.0595,80.7824
Byangsi,Nepal,Definitely endangered,1734,30.0595,80.7824
Pasing,Lao People's Democratic Republic,Definitely endangered,1732,21.1254,101.4697
Yamphu,Nepal,Definitely endangered,1722,27.5935,87.3316
Andio,Indonesia,Vulnerable,1700,-0.8514,123.1457
Cheyenne (Montana),United States of America,Definitely endangered,1700,45.5495,-106.5263
Kumzari,Oman,Severely endangered,1700,26.1936,56.2431
Quechua of Yauyos,Peru,Critically endangered,1700,-12.9081,-75.6958
Bainouk-Samik,Senegal,Severely endangered,1685,12.5733,-16.2652
Côông,Viet Nam,Definitely endangered,1676,22.5943,102.7455
Dogrib,Canada,Vulnerable,1675,62.8292,-115.9904
Upland Yuman,United States of America,Vulnerable,1650,36.2377,-112.7094
Eastern Cuicatec,Mexico,Vulnerable,1641,17.9666,-96.7166
Tamazight (Ait Rouadi),Morocco,Extinct,1637,32.5745,-5.9655
Woleaian,Micronesia (Federated States of),Severely endangered,1631,7.3515,143.8769
Huehuetla Tepehua,Mexico,Definitely endangered,1603,20.46,-98.0761
Kadiwéu,Brazil,Definitely endangered,1600,-20.5222,-56.7237
Southern Tiwa (Isleta Pueblo),United States of America,Definitely endangered,1600,34.9057,-106.7066
Southern Tiwa (Sandia Pueblo),United States of America,Definitely endangered,1600,35.2516,-106.565
Tewa (Arizona),United States of America,Definitely endangered,1600,35.8334,-110.3798
Tewa (New Mexico),United States of America,Severely endangered,1600,36.053,-106.0708
<U+01C1>Gana,Botswana,Vulnerable,1550,-21.7824,21.8971
Akwáwa,Brazil,Vulnerable,1548,-5.2441,-52.7014
Northern Cuicatec,Mexico,Vulnerable,1503,17.9511,-96.7384
Chiquihuitlán Mazatec,Mexico,Definitely endangered,1502,17.9953,-96.7449
Apinajé,Brazil,Vulnerable,1500,-6.0317,-47.5604
Bashkarik,Pakistan,Severely endangered,1500,35.2893,72.6168
Chintang,Nepal,Severely endangered,1500,26.9367,87.1991
Forest Nenets,Russian Federation,Severely endangered,1500,64.9188,77.7941
Hupda (Colombia),Colombia,Definitely endangered,1500,0.3845,-70.1367
Jah Hut,Malaysia,Severely endangered,1500,3.6452,102.3065
Jeri,Côte d'Ivoire,Severely endangered,1500,9.2647,-5.8666
Jonkor Bourmataguil,Chad,Severely endangered,1500,11.4261,19.0145
K'emant,Ethiopia,Severely endangered,1500,12.9349,37.2326
Kanashi,India,Definitely endangered,1500,32.0406,77.1075
Karajá,Brazil,Vulnerable,1500,-11.0921,-50.3393
Karelian (Tikhvin),Russian Federation,Severely endangered,1500,59.601,33.3544
Kendem,Cameroon,Severely endangered,1500,5.7061,9.6377
Khamba,China,Definitely endangered,1500,29.0105,94.7653
Khamba,India,Definitely endangered,1500,29.0105,94.7653
Lishpa,India,Definitely endangered,1500,27.3327,92.384
Mayoruna (Brazil),Brazil,Vulnerable,1500,-3.3379,-64.8413
Mescalero-Chiricahua Apache (New Mexico),United States of America,Definitely endangered,1500,33.1514,-105.7942
Numao Bunu,China,Definitely endangered,1500,24.3902,107.2701
Orang Seletar,Malaysia,Severely endangered,1500,1.3387,103.464
Palenque Creole,Colombia,Definitely endangered,1500,10.0952,-75.1142
Pong,Lao People's Democratic Republic,Definitely endangered,1500,18.4666,105.05
Pyuma,China,Vulnerable,1500,22.8027,121.0748
Saaroa,China,Critically endangered,1500,23.1283,120.7062
Saluan,Indonesia,Vulnerable,1500,-0.8129,122.871
Semaq Beri,Malaysia,Critically endangered,1500,4.0012,102.8443
Talodi,Sudan,Critically endangered,1500,10.6902,30.3964
Wayana (Suriname),Suriname,Vulnerable,1500,2.7455,-54.58
Wik Mungkan,Australia,Vulnerable,1500,-12.9403,141.9873
Natsilingmiutut,Canada,Vulnerable,1455,68.643,-95.8863
Movima,Bolivia (Plurinational State of),Severely endangered,1452,-13.7954,-65.4345
Ngombe,Central African Republic,Definitely endangered,1450,3.9492,15.2352
Cinta Larga,Brazil,Vulnerable,1440,-11.4154,-59.7216
Dupaninan Agta,Philippines,Vulnerable,1400,17.9682,122.0361
Tese,Sudan,Critically endangered,1400,11.2161,29.8471
Bororo,Brazil,Definitely endangered,1390,-15.5172,-53.1024
Puluwat,Micronesia (Federated States of),Severely endangered,1364,7.5803,149.425
Kanela Rankokamekra,Brazil,Vulnerable,1337,-6.075,-44.9121
Saba,Chad,Definitely endangered,1335,11.1487,18.0175
Kurripako (Brazil),Brazil,Vulnerable,1332,0.7001,-68.3789
Triw,Lao People's Democratic Republic,Definitely endangered,1328,15.6833,107.2
Guernsey French,United Kingdom of Great Britain and Northern Ireland,Severely endangered,1327,49.4502,-2.5927
Paafang,Micronesia (Federated States of),Severely endangered,1318,7.6198,155.1571
Ch<U+0268>l<U+0268>ng,Nepal,Definitely endangered,1314,26.9483,87.2527
Zapotec of the Valleys north,Mexico,Severely endangered,1303,17.0666,-96.65
Cypriot Arabic,Cyprus,Severely endangered,1300,35.3196,33.338
Palikur (Brazil),Brazil,Vulnerable,1300,4.0396,-51.7236
Sanenyo,India,Critically endangered,1300,7.9504,93.576
Tecóatl Mazatec,Mexico,Vulnerable,1300,18.1653,-96.9124
Xinka,Guatemala,Critically endangered,1283,14.3447,-90.2603
Ozomatlán Totonac,Mexico,Critically endangered,1276,20.1766,-98.0527
Kagate,Nepal,Definitely endangered,1273,27.5449,86.2925
Maxakali,Brazil,Vulnerable,1271,-16.5519,-40.3417
Murik,Papua New Guinea,Vulnerable,1256,-3.8368,144.2807
Pengo,India,Critically endangered,1254,19.0621,83.4851
Marúbo,Brazil,Vulnerable,1252,-6.0968,-70.2246
Aivilingmiutut,Canada,Vulnerable,1245,64.1657,-83.243
Besme,Chad,Severely endangered,1228,9.6386,16.018
Oirata,Indonesia,Definitely endangered,1221,-8.0755,127.1777
Lohorung,Nepal,Severely endangered,1207,27.4266,87.2498
Harakmbut,Peru,Definitely endangered,1206,-12.9403,-70.2685
Buyang,China,Severely endangered,1200,23.4146,105.7632
Dakka,Indonesia,Vulnerable,1200,-3.316,119.2071
Mah Meri,Malaysia,Severely endangered,1200,2.836,101.4299
Manjui,Argentina,Definitely endangered,1200,-23.1201,-62.7539
Manjui,Bolivia (Plurinational State of),Definitely endangered,1200,-23.1201,-62.7539
Manjui,Paraguay,Definitely endangered,1200,-23.1201,-62.7539
Te'un (Seram Island),Indonesia,Definitely endangered,1200,-3.1843,128.9465
Tsou,China,Vulnerable,1200,23.5174,120.8564
Ujir,Indonesia,Definitely endangered,1200,-5.6105,134.2776
White Gelao (China),China,Severely endangered,1200,26.4894,105.021
Dakkang,Lao People's Democratic Republic,Definitely endangered,1198,15.6333,107.25
Northern Algonquin,Canada,Vulnerable,1180,48.0616,-77.3521
Akawaio (Brazil),Brazil,Vulnerable,1170,4.1711,-60.249
Huehuetlán Mazatec,Mexico,Vulnerable,1169,18.1964,-96.9471
Trio (Brazil),Brazil,Vulnerable,1156,1.7136,-55.2392
Savo,Solomon Islands,Definitely endangered,1147,-9.1292,159.8071
Tektitek,Guatemala,Definitely endangered,1144,15.3073,-92.0609
Fwâi,New Caledonia (France),Vulnerable,1131,-20.7048,164.9034
Waimirí-Atroarí,Brazil,Vulnerable,1120,-1.0985,-60.8203
Guayabero,Colombia,Definitely endangered,1118,2.6028,-72.3999
Fagauvea (Northern),New Caledonia (France),Vulnerable,1107,-20.4089,166.5444
Fagauvea (Southern),New Caledonia (France),Vulnerable,1107,-20.7381,166.4126
Fania,Chad,Severely endangered,1100,10.0581,18.3993
Ubi,Chad,Severely endangered,1100,12.1534,18.6946
Warnang,Sudan,Severely endangered,1100,10.6538,30.6298
Itzá,Guatemala,Critically endangered,1094,16.9838,-89.899
Mixtec of the southwest of Puebla,Mexico,Definitely endangered,1074,18.6333,-98.0666
Lowland Chontal,Mexico,Critically endangered,1060,16.0286,-95.6683
Koireng,India,Critically endangered,1056,24.2319,93.7463
Chipaya,Bolivia (Plurinational State of),Definitely endangered,1050,-19.2074,-68.2031
Mokilese,Micronesia (Federated States of),Critically endangered,1050,6.6864,159.7631
Western Náhuatl,Mexico,Severely endangered,1041,18.3745,-103.3026
Acatepec Mazatec,Mexico,Vulnerable,1038,18.1621,-96.8766
Mixtec of Villa de Tututepec,Mexico,Definitely endangered,1019,16.1333,-97.6
Toda,India,Critically endangered,1006,11.3184,76.8273
Adabe,Timor-Leste,Vulnerable,1000,-8.2549,125.5737
Alutor,Russian Federation,Severely endangered,1000,60.2016,165.4238
Arapaho (Wyoming),United States of America,Severely endangered,1000,43.0139,-108.8214
Beeke,Democratic Republic of the Congo,Severely endangered,1000,0.9997,28.7951
Blackfoot (United States of America),United States of America,Definitely endangered,1000,48.5699,-113.0918
Bohtan Neo-Aramaic,Georgia,Severely endangered,1000,41.5579,45.0219
Bohtan Neo-Aramaic,Russian Federation,Severely endangered,1000,41.5579,45.0219
Bola,China,Definitely endangered,1000,25.0638,98.2414
Bong'om,Kenya,Definitely endangered,1000,1.1315,35.0134
Bora,Colombia,Vulnerable,1000,-2.7455,-71.8835
Bora,Peru,Vulnerable,1000,-2.7455,-71.8835
Central Siberian Yupik (St. Lawrence Island),United States of America,Definitely endangered,1000,63.7444,-171.7242
Chali,Bhutan,Definitely endangered,1000,27.301,91.2991
Cherokee (North Carolina),United States of America,Severely endangered,1000,35.113,-84.0588
Cocama-Cocamilla (Peru),Peru,Severely endangered,1000,-4.8282,-74.2565
Dair,Sudan,Severely endangered,1000,12.517,30.5914
Dakpa,Bhutan,Definitely endangered,1000,27.3937,91.8965
Dakpa,India,Definitely endangered,1000,27.3937,91.8965
Dampelas,Indonesia,Definitely endangered,1000,0.2005,119.8965
Danaw,Myanmar,Critically endangered,1000,21.192,97.3937
Ega,Côte d'Ivoire,Severely endangered,1000,5.8018,-5.4492
El Hugeirat,Sudan,Severely endangered,1000,12.3131,28.4243
Faghani,Solomon Islands,Vulnerable,1000,-10.4337,161.5979
Fongoro,Chad,Severely endangered,1000,11.1029,22.7197
Gambiri,Afghanistan,Severely endangered,1000,34.9017,70.9085
Gongduk,Bhutan,Vulnerable,1000,27.086,91.2002
Gorap,Indonesia,Definitely endangered,1000,2.1528,128.2516
Guugu Yimidhirr,Australia,Vulnerable,1000,-14.8598,144.7338
Gyem,Nigeria,Critically endangered,1000,10.3865,9.3122
Habu,Timor-Leste,Vulnerable,1000,-8.7819,126.0021
Hawaiian,United States of America,Critically endangered,1000,21.9226,-160.1147
Hértevin,Turkey,Critically endangered,1000,37.9268,42.5473
Hu,China,Definitely endangered,1000,22.1743,100.9264
Hualapai,United States of America,Vulnerable,1000,35.5279,-113.4297
Hung,Lao People's Democratic Republic,Definitely endangered,1000,18.9062,105.05
Hung,Viet Nam,Definitely endangered,1000,18.9062,105.05
Inkhokvari,Russian Federation,Definitely endangered,1000,42.3981,46.0299
Ishkashimi,Tajikistan,Severely endangered,1000,36.6915,71.7668
Iyive,Cameroon,Severely endangered,1000,6.4354,9.5278
Jiongnai Bunu,China,Definitely endangered,1000,23.3902,108.5135
Kaande,Gabon,Severely endangered,1000,-0.1318,11.8103
Kaco',Cambodia,Definitely endangered,1000,13.934,107.4222
Kadu,Myanmar,Severely endangered,1000,24.2042,95.6332
Kairui-Midiki,Timor-Leste,Vulnerable,1000,-8.7222,126.2878
Kari,Democratic Republic of the Congo,Severely endangered,1000,4.8392,25.5432
Kayabi,Brazil,Vulnerable,1000,-11.1972,-53.2342
Khowa,India,Definitely endangered,1000,27.2546,92.5323
Kodeoha,Indonesia,Vulnerable,1000,-3.4147,120.9155
Kujarge,Chad,Definitely endangered,1000,11.749,22.2431
Kukatja,Australia,Vulnerable,1000,-21.2074,126.4746
Kuot,Papua New Guinea,Vulnerable,1000,-3.0692,151.5234
Lokono (Suriname),French Guiana (France),Severely endangered,1000,5.6487,-55.1074
Lokono (Suriname),Suriname,Severely endangered,1000,5.6487,-55.1074
Mahongwe,Gabon,Severely endangered,1000,1.0216,13.9031
Manchurian Ölöt,China,Severely endangered,1000,48.1953,124.2993
May,Lao People's Democratic Republic,Definitely endangered,1000,18.0623,105.5786
May,Viet Nam,Definitely endangered,1000,18.0623,105.5786
Mbara,Chad,Severely endangered,1000,10.8009,15.6335
Mech,India,Severely endangered,1000,26.5688,89.1979
Mòcheno,Italy,Definitely endangered,1000,46.1194,11.3258
Naueti,Timor-Leste,Vulnerable,1000,-8.7357,126.7053
North Greenlandic,Greenland (Kingdom of Denmark),Definitely endangered,1000,77.4815,-69.3511
Ormuri,Pakistan,Definitely endangered,1000,32.518,69.783
Ormuri,Afghanistan,Definitely endangered,1000,32.518,69.783
Paiter,Brazil,Vulnerable,1000,-11.1245,-61.3476
Pareci,Brazil,Definitely endangered,1000,-14.3525,-58.0174
Pasi,India,Definitely endangered,1000,28.1834,95.2651
Resian,Italy,Definitely endangered,1000,46.3734,13.3058
Sach,Lao People's Democratic Republic,Definitely endangered,1000,17.78,105.7666
Sach,Viet Nam,Definitely endangered,1000,17.78,105.7666
Sake,Gabon,Severely endangered,1000,-0.0247,11.7691
Saterlandic,Germany,Severely endangered,1000,53.1059,7.6787
She,China,Critically endangered,1000,23.3333,115.2459
Shumashti,Afghanistan,Severely endangered,1000,34.6108,70.7569
Sighu,Gabon,Severely endangered,1000,-0.0549,13.5461
Sobei,Indonesia,Definitely endangered,1000,-1.8632,138.7408
Thavung (Laos),Lao People's Democratic Republic,Definitely endangered,1000,18.4666,104.6666
Thavung (Laos),Thailand,Definitely endangered,1000,18.4666,104.6666
Tirma,Sudan,Critically endangered,1000,6.4899,34.3212
Tombelala,Indonesia,Vulnerable,1000,-2.5315,121.9454
Toto,India,Critically endangered,1000,26.6867,89.5056
Trio (Suriname),Suriname,Vulnerable,1000,2.1528,-56.3818
Tum,Lao People's Democratic Republic,Definitely endangered,1000,18.7,105.05
Tuotomb,Cameroon,Severely endangered,1000,4.4449,10.371
Yatê,Brazil,Severely endangered,1000,-7.0136,-37.0458
Zaiwa,China,Definitely endangered,1000,28.4735,96.4764
Zaiwa,India,Definitely endangered,1000,28.4735,96.4764
Zay,Ethiopia,Severely endangered,1000,8.0728,38.8476
Zenaga (Western Sahara),Western Sahara,Critically endangered,1000,22.2687,-13.7109
|Gui,Botswana,Vulnerable,1000,-21.8385,21.7858
<U+01C1>Ani,Botswana,Definitely endangered,1000,-18.6462,22.1319
Buglé,Panama,Definitely endangered,993,8.5858,-82.3856
Ka'apór,Brazil,Vulnerable,991,-2.8991,-46.3183
Hadza,United Republic of Tanzania,Vulnerable,975,-3.401,35.3897
Kunwinjku,Australia,Vulnerable,974,-12.1333,133.4014
Bakairi,Brazil,Vulnerable,950,-14.4213,-54.0305
Drubea,New Caledonia (France),Vulnerable,946,-22.0347,166.5527
Namonuito,Micronesia (Federated States of),Severely endangered,944,8.6299,150.0128
Hya,Cameroon,Severely endangered,940,10.3311,13.5269
Hya,Nigeria,Severely endangered,940,10.3311,13.5269
Machineri (Brazil),Brazil,Vulnerable,937,-10.5742,-70.4882
South Slavey,Canada,Definitely endangered,920,61.8154,-121.3346
Wajãpi,Brazil,Vulnerable,905,0.747,-52.8442
Mewahang,Nepal,Severely endangered,904,27.5441,87.1401
Awapit,Ecuador,Severely endangered,900,1.0985,-78.706
Chimila,Colombia,Severely endangered,900,10.0986,-73.894
Kua,Botswana,Definitely endangered,900,-22.7106,26.4605
Njalgulgule,Sudan,Severely endangered,900,8.4452,25.3015
Pech,Honduras,Severely endangered,900,15.0819,-85.5552
Rikbaktsa,Brazil,Severely endangered,900,-10.6174,-58.2714
Caac,New Caledonia (France),Vulnerable,890,-20.3883,164.5614
Inuinnaqtun,Canada,Definitely endangered,890,67.8443,-115.2742
Voh-Koné dialects,New Caledonia (France),Definitely endangered,878,-20.9665,164.7866
Kuna (Colombia),Colombia,Severely endangered,876,7.8633,-76.9042
Dení,Brazil,Vulnerable,875,-6.5773,-68.1591
Tarao,India,Critically endangered,870,24.297,93.4497
Santa María del Mar Huave,Mexico,Severely endangered,862,16.2166,-94.85
Nukuoro,Micronesia (Federated States of),Definitely endangered,860,3.8574,154.9786
Mixtec of Santa Cruz Itundujia,Mexico,Definitely endangered,851,16.7666,-97.6
"Zapotec of the Southern mountains, northeast",Mexico,Definitely endangered,849,16.2666,-96.2833
Kumak,New Caledonia (France),Vulnerable,847,-20.1278,164.0259
Pukapukan,Cook Islands,Definitely endangered,840,-10.871,-165.8441
Lola,Indonesia,Vulnerable,830,-6.3316,134.8818
Ashaninka (Brazil),Brazil,Vulnerable,813,-9.3786,-73.1414
Ottawa (Canada),Canada,Severely endangered,810,46.1519,-82.2243
Ottawa (Canada),United States of America,Severely endangered,810,46.1519,-82.2243
Bati,Cameroon,Severely endangered,800,4.2012,10.7858
Chorote Iyojwa'ja,Argentina,Severely endangered,800,-24.287,-60.3808
Chorote Iyojwa'ja,Paraguay,Severely endangered,800,-24.287,-60.3808
Eman,Cameroon,Severely endangered,800,6.0531,9.7338
Isu,Cameroon,Severely endangered,800,4.0094,9.5745
Jamamadí,Brazil,Vulnerable,800,-9.0424,-68.3789
Javaé,Brazil,Definitely endangered,800,-11.1568,-50.4711
Nubaca,Cameroon,Severely endangered,800,4.2971,10.7446
Panasuan,Indonesia,Definitely endangered,800,-2.2516,119.5806
Piaroa (Colombia),Colombia,Definitely endangered,800,4,-68.6666
Taos,United States of America,Definitely endangered,800,36.4717,-105.5596
Taulil,Papua New Guinea,Vulnerable,800,-4.5435,152.0397
Tuyuca (Brazil),Brazil,Vulnerable,800,0.4394,-66.8847
Kaike,Nepal,Definitely endangered,794,28.9642,82.9819
Kildin Saami,Russian Federation,Severely endangered,787,68.0075,35.0079
Ese eja,Bolivia (Plurinational State of),Definitely endangered,782,-12.5867,-69.0161
Ese eja,Peru,Definitely endangered,782,-12.5867,-69.0161
Central Cagayan Agta,Philippines,Vulnerable,779,17.9891,121.8603
Mixtec of Santa Inés de Zaragoza,Mexico,Definitely endangered,775,17.2333,-97.1666
Ocopetatillo Mazatec,Mexico,Vulnerable,757,18.1856,-96.9113
Jaqaru,Peru,Severely endangered,750,-12.7488,-75.8248
Waiwai (Suriname),Suriname,Critically endangered,750,2.1528,-56.206
Laal,Chad,Critically endangered,749,9.9607,17.6083
Ulcha,Russian Federation,Critically endangered,732,52.0457,140.4162
Jawe,New Caledonia (France),Vulnerable,729,-20.4913,164.696
Maslam,Cameroon,Severely endangered,723,12.136,14.6914
Maslam,Chad,Severely endangered,723,12.136,14.6914
Nambiquara do Sul,Brazil,Vulnerable,721,-13.2506,-59.5404
North Slavey,Canada,Definitely endangered,720,65.2161,-123.4362
Gitksan,Canada,Severely endangered,710,55.355,-127.6828
A'ingae / Cofan (Ecuador),Ecuador,Definitely endangered,700,0.0659,-76.7065
Animere,Ghana,Critically endangered,700,7.6129,0.4064
Batek,Malaysia,Critically endangered,700,4.6695,102.5051
Enggano,Indonesia,Vulnerable,700,-5.4191,102.2717
Indri,Sudan,Severely endangered,700,8.4397,25.5926
Kalaw Lagaw Ya,Australia,Definitely endangered,700,-10.0828,142.1081
Lakon,Vanuatu,Vulnerable,700,-14.251,167.422
Mok (China),China,Definitely endangered,700,21.5158,100.221
Ngaanyatjarra,Australia,Vulnerable,700,-26.037,124.541
Ngatikese Men's Creole,Micronesia (Federated States of),Definitely endangered,700,5.8305,157.2308
Piratapuya (Brazil),Brazil,Severely endangered,700,0.5712,-66.7089
Mountain Guarijío,Mexico,Vulnerable,696,27.8758,-108.553
Nivkh (Sakhalin),Russian Federation,Severely endangered,688,51.7814,143.1628
Krikati,Brazil,Vulnerable,682,-5.8674,-46.7468
Dakota,Canada,Definitely endangered,675,49.8461,-100.5035
Carrier,Canada,Severely endangered,660,54.2395,-125.7621
Matlatzinca,Mexico,Definitely endangered,651,19.0479,-100.2197
Kasanga,Guinea-Bissau,Critically endangered,650,12.2702,-16.1553
Wanano / Kotiria (Brazil),Brazil,Vulnerable,650,0.6152,-67.5
Central Popoloc,Mexico,Severely endangered,641,18.5842,-97.9295
Eastern Ojibwe,Canada,Severely endangered,620,44.8381,-80.1983
River Guarijío,Mexico,Vulnerable,617,27.5196,-109.2525
Yuhup (Brazil),Brazil,Vulnerable,617,-1.0546,-69.3896
Ocoyoacac Otomí,Mexico,Severely endangered,609,19.2716,-99.4613
Akum,Cameroon,Critically endangered,600,6.73,9.9316
Akum,Nigeria,Critically endangered,600,6.73,9.9316
Blablanga,Solomon Islands,Definitely endangered,600,-8.206,159.4638
Bubia,Cameroon,Severely endangered,600,4.0204,9.2037
Chickasaw,United States of America,Severely endangered,600,34.6,-96.8161
Desano (Brazil),Brazil,Definitely endangered,600,0.0878,-67.9394
Faetar,Italy,Definitely endangered,600,41.3265,15.1721
Hixkaryána,Brazil,Vulnerable,600,-0.5493,-58.5131
Hoava,Solomon Islands,Vulnerable,600,-8.1883,157.6036
Hodi,Venezuela (Bolivarian Republic of),Vulnerable,600,6.075,-65.6323
Iñapari,Peru,Critically endangered,600,-12.0822,-69.7412
Koke,Chad,Severely endangered,600,10.8575,18.1315
Kowiai,Indonesia,Vulnerable,600,-3.9437,134.0881
Kuikuro,Brazil,Vulnerable,600,-12.35,-53.21
Laiyolo,Indonesia,Definitely endangered,600,-6.3862,120.4733
Mo'da,Sudan,Critically endangered,600,6.5008,29.9377
Northern Selkup,Russian Federation,Severely endangered,600,65.7035,82.4441
Penrhyn,Cook Islands,Severely endangered,600,-9.0153,-158.0218
Pintupi,Australia,Vulnerable,600,-22.8882,128.3203
Piratapuya (Colombia),Colombia,Critically endangered,600,0.8333,-69.5
Siona / Secoya (Ecuador),Ecuador,Severely endangered,600,-0.0659,-76.3989
Sonsorol,Palau,Severely endangered,600,7.4278,134.5495
Teanu,Solomon Islands,Definitely endangered,600,-11.6219,166.9633
Yaminahua (Brazil),Brazil,Vulnerable,600,-10.6606,-69.6972
Andoke,Colombia,Severely endangered,597,-0.769,-72.2351
Southern Tlapanec,Mexico,Severely endangered,592,16.7325,-98.6034
Orowe,New Caledonia (France),Definitely endangered,587,-21.4223,165.4678
Mosetén,Bolivia (Plurinational State of),Severely endangered,585,-15.4113,-67.5
Chatong,Lao People's Democratic Republic,Definitely endangered,580,15.65,107.1166
Norfolk-Pitcairn (Norfolk),Norfolk Island (Australia),Definitely endangered,580,-29.0225,167.9425
Nunatsiavummiutut,Canada,Definitely endangered,575,56.532,-61.7408
Shuswap,Canada,Definitely endangered,570,51.7886,-122.2286
Xaragure,New Caledonia (France),Vulnerable,566,-21.8054,166.4964
Tapirapé,Brazil,Vulnerable,564,-10.6606,-50.4602
Lacandón,Mexico,Critically endangered,563,16.706,-91.0641
Zapotec of Zimatlán de Álvarez,Mexico,Definitely endangered,562,16.8666,-96.7833
Chilcotin,Canada,Definitely endangered,560,52.031,-123.1678
Chácobo,Bolivia (Plurinational State of),Definitely endangered,550,-11.3454,-65.8135
Gao,Solomon Islands,Vulnerable,550,-8.3514,159.8167
Geme,Central African Republic,Critically endangered,550,8.4941,20.6378
Karore,Papua New Guinea,Vulnerable,550,-6.1542,149.8205
Yuhup (Colombia),Colombia,Definitely endangered,550,-0.5493,-69.9169
Western Tlapanec,Mexico,Vulnerable,549,17.4101,-99.2423
Hinukh,Russian Federation,Definitely endangered,548,42.1801,45.977
Anuki,Papua New Guinea,Definitely endangered,542,-9.6522,149.7656
Imeraguen,Mauritania,Definitely endangered,534,18.9166,-15.996
Narpa,Nepal,Definitely endangered,533,28.7315,84.261
Akatek (Mexico),Mexico,Vulnerable,532,16.7823,-93.1061
Naskapi,Canada,Vulnerable,525,54.903,-66.802
Archi,Russian Federation,Definitely endangered,524,41.9839,46.8127
Yawanawá,Brazil,Vulnerable,519,-10.8333,-70.0927
Raute,Nepal,Severely endangered,518,28.9744,80.7969
Seri,Mexico,Vulnerable,518,29.2333,-112.2
Western Popoloc,Mexico,Severely endangered,516,18.4141,-98.0176
Yaqui (United States of America),United States of America,Definitely endangered,510,32.1158,-111.0638
Kalapalo,Brazil,Vulnerable,506,-12.1574,-53.2521
Nganasan,Russian Federation,Severely endangered,505,72.816,91.582
Jakaltek (Mexico),Mexico,Severely endangered,504,16.3137,-93.2084
Zapotec of San Antonino el Alto,Mexico,Definitely endangered,504,16.8166,-97.0333
Purum,India,Critically endangered,503,24.3521,93.5925
Aheu,Lao People's Democratic Republic,Definitely endangered,500,18.4333,104.5
Amahuaca,Peru,Severely endangered,500,-10.8764,-72.29
Anfillo,Ethiopia,Critically endangered,500,8.5049,34.7415
Arbanasi,Croatia,Severely endangered,500,44.0994,15.2545
